IMU 25104.164786 -0.15635 -0.18809 0.2957 1.01578 -9.72641 0.32099
IMU 25104.164957 0.6361 -0.06239 -0.06135 0.95788 -9.69091 0.33087
ODOM 25104.165847 2.15625
IMU 25104.18948 0.97116 -0.16593 -0.1615 0.93128 -9.80465 0.26338
IMU 25104.189565 0.1095 -0.07036 0.28769 0.99583 -9.80632 0.2269
ODOM 25104.189592 2.15625
IMU 25104.197813 0.14414 -0.08959 0.21846 1.01167 -9.67624 0.32138
ODOM 25104.205804 2.25005
IMU 25104.208039 1.02458 -0.08032 -0.09337 0.94341 -9.73922 0.31541
IMU 25104.218497 0.35994 -0.16537 0.20243 0.98077 -9.85473 0.24314
ODOM 25104.225805 2.31255
IMU 25104.228872 -0.08011 -0.09101 0.34101 1.0683 -9.73825 0.28529
IMU 25104.239153 0.7644 0.02451 -0.01025 0.99906 -9.7179 0.30583
ODOM 25104.245835 2.3594
IMU 25104.249497 1.00928 -0.08814 -0.11846 0.95348 -9.79566 0.2625
IMU 25104.260232 0.1894 -0.02811 0.30009 0.9839 -9.78441 0.25976
ODOM 25104.265749 2.40625
IMU 25104.271528 0.79901 0.01118 -0.0003 0.93265 -9.74773 0.30974
IMU 25104.281773 0.115 -0.14216 0.30515 0.99759 -9.83957 0.23199
ODOM 25104.285896 2.45315
IMU 25104.291959 -0.25218 -0.0985 0.40882 1.07241 -9.74939 0.24793
IMU 25104.302325 0.55173 0.00371 0.04066 0.99847 -9.70577 0.29468
ODOM 25104.306296 2.5469
IMU 25104.312609 0.44105 -0.13185 -0.02283 0.95818 -9.83546 0.25106
IMU 25104.323024 -0.19104 -0.22779 0.36711 0.99955 -9.77825 0.28646
ODOM 25104.326559 2.59375
IMU 25104.349955 0.16152 -0.07688 0.12877 0.97764 -9.64964 0.31297
IMU 25104.350028 0.75684 -0.1658 -0.04664 0.95348 -9.76123 0.23404
ODOM 25104.350062 2.625
IMU 25104.355969 -0.16042 -0.25841 0.36973 0.98077 -9.83282 0.17497
ODOM 25104.366486 2.6719
IMU 25104.367499 -0.56592 -0.13725 0.418 1.03965 -9.72729 0.28989
IMU 25104.377637 0.35906 -0.09316 0.05008 0.97637 -9.72426 0.35444
ODOM 25104.385964 2.7188
IMU 25104.387904 0.65296 -0.21244 0.05871 0.97314 -9.85209 0.29331
IMU 25104.398133 0.01367 -0.10806 0.36247 1.01324 -9.76279 0.26211
ODOM 25104.406125 2.76565
IMU 25104.40842 0.17346 -0.11282 0.07641 0.99779 -9.69247 0.27639
IMU 25104.419021 0.45646 -0.06099 -0.01075 0.91348 -9.72807 0.26857
ODOM 25104.426434 2.7969
IMU 25104.429283 -0.45612 -0.23277 0.24455 0.92287 -9.82451 0.25918
IMU 25104.439543 -0.50608 -0.13137 0.29851 0.97334 -9.70685 0.31874
ODOM 25104.445985 2.84375
IMU 25104.449874 0.41132 -0.04719 -0.12744 0.96375 -9.73521 0.30808
IMU 25104.4623 -0.54614 -0.15198 0.24793 1.0061 -9.74235 0.24725
ODOM 25104.465989 2.93755
IMU 25104.472562 -0.2695 0.04601 -0.02264 0.92619 -9.67565 0.343
IMU 25104.483262 0.2126 -0.21209 -0.16525 0.85196 -9.74313 0.28392
ODOM 25104.486336 2.9844
IMU 25104.514867 -0.46161 -0.09525 0.09454 0.89891 -9.80221 0.18201
IMU 25104.514906 -0.49999 -0.15273 0.16657 0.93568 -9.67174 0.2138
ODOM 25104.514932 3.0469
IMU 25104.514971 0.11896 -0.10649 -0.23329 0.91769 -9.70333 0.25527
IMU 25104.525532 -0.29122 -0.14203 0.08315 0.9127 -9.82715 0.22935
ODOM 25104.526651 3.07815
IMU 25104.535679 -0.93582 -0.18118 0.19904 0.95475 -9.75008 0.30974
IMU 25104.545973 -0.3423 -0.07076 -0.15425 0.87534 -9.71438 0.30828
ODOM 25104.546387 3.14065
IMU 25104.557083 0.26608 -0.16233 -0.15661 0.87455 -9.77893 0.22514
ODOM 25104.565719 3.18755
IMU 25104.567357 -0.55045 -0.23413 -0.08282 0.89294 -9.79663 0.14778
IMU 25104.577683 -0.71786 -0.23086 0.08034 0.92659 -9.71194 0.22387
ODOM 25104.586172 3.2344
IMU 25104.58795 -0.24429 -0.10569 -0.16463 0.8413 -9.71282 0.32021
IMU 25104.598312 -0.78289 -0.31431 0.09568 0.84208 -9.90578 0.23698
ODOM 25104.605924 3.28125
IMU 25104.608792 -1.10627 -0.29795 0.24985 0.9439 -9.75712 0.27522
IMU 25104.619236 -0.17283 -0.18304 -0.38601 0.87045 -9.75829 0.27717
ODOM 25104.626111 3.32815
IMU 25104.62956 -0.031 -0.2993 -0.10503 0.85118 -9.80524 0.20196
IMU 25104.639815 -1.01382 -0.2841 0.06719 0.90018 -9.76279 0.20255
ODOM 25104.645967 3.39065
IMU 25104.674952 -1.21903 -0.3196 0.21204 0.87475 -9.71575 0.30172
IMU 25104.675032 -0.44503 -0.23022 -0.1899 0.84071 -9.69061 0.32441
IMU 25104.675057 -0.79031 -0.3775 0.04092 0.83191 -9.89913 0.19786
ODOM 25104.67508 3.4219
IMU 25104.68179 -0.64199 -0.30899 -0.21331 0.81558 -9.71712 0.29527
ODOM 25104.68598 3.5
IMU 25104.692204 -0.57418 -0.39997 0.00815 0.77704 -9.85639 0.29253
IMU 25104.702376 -1.15821 -0.41965 0.27384 0.88121 -9.77502 0.29497
ODOM 25104.705925 3.51565
IMU 25104.712465 -1.01979 -0.25193 0.13084 0.84658 -9.71956 0.27434
IMU 25104.722588 -0.17999 -0.29709 -0.1055 0.82438 -9.7534 0.26035
ODOM 25104.725934 3.56255
IMU 25104.732864 -0.95907 -0.38031 0.18625 0.84091 -9.85659 0.22426
IMU 25104.743026 -1.5237 -0.38279 0.45554 0.86164 -9.70499 0.34397
ODOM 25104.745907 3.59375
IMU 25104.753338 -0.65974 -0.28996 -0.10221 0.79837 -9.70832 0.37214
IMU 25104.763481 -0.62596 -0.30405 0.1417 0.78722 -9.83497 0.24822
ODOM 25104.765512 3.62505
IMU 25104.773846 -0.8908 -0.42673 0.30179 0.89011 -9.72846 0.23267
IMU 25104.784193 -0.91502 -0.31747 0.25114 0.85548 -9.75252 0.27228
ODOM 25104.785829 3.64065
IMU 25104.794472 -0.62676 -0.35309 0.24025 0.8413 -9.71937 0.31982
IMU 25104.804775 -0.93083 -0.38014 0.32857 0.85069 -9.8339 0.32529
ODOM 25104.80576 3.71875
IMU 25104.828926 -1.20702 -0.49559 0.53822 0.83886 -9.74343 0.3563
IMU 25104.829043 -0.33353 -0.36311 0.10832 0.8282 -9.72367 0.33732
ODOM 25104.829074 3.7344
IMU 25104.839007 -0.48144 -0.42706 0.21076 0.78839 -9.84153 0.2269
ODOM 25104.846639 3.7969
IMU 25104.849819 -1.24978 -0.50507 0.65782 0.86145 -9.7626 0.27131
IMU 25104.860227 -1.16799 -0.42542 0.33656 0.77734 -9.72651 0.32549
ODOM 25104.866319 3.84375
IMU 25104.870607 -0.63683 -0.56916 0.36936 0.75621 -9.82656 0.33175
IMU 25104.88159 -0.69049 -0.39722 0.41377 0.84306 -9.74802 0.32295
ODOM 25104.88586 3.89065
IMU 25104.89438 -0.15075 -0.46006 0.14674 0.757 -9.7178 0.31747
IMU 25104.904669 -0.528 -0.54385 0.45652 0.73411 -9.82676 0.26661
ODOM 25104.905874 3.9219
IMU 25104.914801 -1.3527 -0.59998 0.55549 0.7343 -9.74979 0.32441
IMU 25104.92494 -0.60244 -0.46045 0.29652 0.6721 -9.77003 0.34652
ODOM 25104.926427 3.96875
IMU 25104.93508 -0.2521 -0.61772 0.18084 0.72932 -9.80857 0.29429
IMU 25104.945225 -0.56084 -0.5369 0.43367 0.7926 -9.81952 0.26818
ODOM 25104.946195 4.01565
IMU 25104.95536 -0.5221 -0.44845 0.38572 0.76189 -9.67937 0.34339
IMU 25104.965635 -0.09293 -0.43536 0.08334 0.69616 -9.72357 0.38349
ODOM 25104.965905 4.0469
IMU 25104.987381 -0.57423 -0.54818 0.4298 0.65469 -9.80563 0.31757
IMU 25104.987545 -0.97772 -0.57374 0.50508 0.73245 -9.75223 0.30348
ODOM 25104.987574 4.07815
IMU 25104.997525 -0.19412 -0.45263 0.13648 0.71093 -9.73326 0.2982
ODOM 25105.00611 4.14065
IMU 25105.007776 -0.23506 -0.57138 0.19456 0.72384 -9.85942 0.27111
IMU 25105.01802 -0.67348 -0.54833 0.42787 0.78213 -9.7404 0.35806
ODOM 25105.026496 4.15625
IMU 25105.028343 -0.25059 -0.55589 0.26666 0.72247 -9.71497 0.39102
IMU 25105.038548 0.07455 -0.44965 0.26437 0.70624 -9.727 0.34945
ODOM 25105.045896 4.1719
IMU 25105.048903 -0.29246 -0.6776 0.22957 0.73108 -9.79526 0.23835
IMU 25105.059266 -0.58173 -0.49521 0.41893 0.75572 -9.72543 0.27766
ODOM 25105.066371 4.20315
IMU 25105.069528 -0.0739 -0.49578 0.12502 0.68658 -9.71135 0.37547
IMU 25105.079544 -0.35849 -0.75458 0.46571 0.70232 -9.89649 0.29243
ODOM 25105.08645 4.25005
IMU 25105.089782 -0.47734 -0.64471 0.53765 0.77489 -9.75213 0.36676
IMU 25105.100218 0.30029 -0.57225 0.14383 0.73773 -9.79409 0.30045
ODOM 25105.106003 4.28125
IMU 25105.11052 0.40715 -0.6664 0.20579 0.75876 -9.75027 0.32608
IMU 25105.121027 -0.80683 -0.61544 0.72545 0.73978 -9.73795 0.40119
ODOM 25105.126169 4.31255
IMU 25105.148815 0.06483 -0.67895 0.14047 0.66555 -9.74891 0.35366
IMU 25105.148881 -0.03362 -0.70032 0.51447 0.72257 -9.9272 0.26397
ODOM 25105.148906 4.34375
IMU 25105.156705 -0.30814 -0.80578 0.28861 0.77548 -9.73042 0.29145
ODOM 25105.166154 4.37505
IMU 25105.166733 -0.02776 -0.65143 0.29525 0.71259 -9.83125 0.33732
IMU 25105.177158 0.02414 -0.82736 0.37246 0.70252 -9.77013 0.32255
ODOM 25105.186727 4.4063
IMU 25105.187644 -0.45377 -0.64691 0.40068 0.7389 -9.84162 0.30769
IMU 25105.197762 -0.03878 -0.7361 0.33707 0.67993 -9.68435 0.31365
ODOM 25105.205759 4.4219
IMU 25105.211342 0.30219 -0.68529 0.08448 0.65704 -9.7805 0.2762
IMU 25105.218068 -0.397 -0.8273 0.38765 0.65636 -9.81424 0.22632
ODOM 25105.226316 4.46875
IMU 25105.228451 -1.10027 -0.68565 0.53807 0.70487 -9.80563 0.29537
IMU 25105.238434 -0.40925 -0.69975 0.16935 0.62261 -9.73697 0.35581
ODOM 25105.246665 4.4844
IMU 25105.248767 -0.18197 -0.75691 0.19672 0.65684 -9.91341 0.28764
IMU 25105.258883 -0.26435 -0.82113 0.30082 0.6857 -9.76671 0.25673
ODOM 25105.265859 4.50005
IMU 25105.269153 -0.07791 -0.65421 -0.00362 0.62838 -9.75409 0.2804
IMU 25105.279503 -0.28291 -0.85684 0.18568 0.60511 -9.77355 0.27013
ODOM 25105.286222 4.5469
IMU 25105.309128 -0.02604 -0.87083 -0.07267 0.6099 -9.77874 0.31512
ODOM 25105.3092 4.57815
IMU 25105.311369 -0.16668 -0.92317 0.15432 0.59943 -9.8784 0.1959
IMU 25105.32153 -0.60255 -0.88713 0.17019 0.63083 -9.7626 0.27639
ODOM 25105.326152 4.59375
IMU 25105.331947 -0.59675 -0.81285 0.09437 0.53889 -9.74304 0.37341
IMU 25105.342005 -0.75493 -0.8786 0.1746 0.5519 -9.82421 0.35591
ODOM 25105.345744 4.6094
IMU 25105.352291 -0.78298 -0.99724 0.29997 0.6409 -9.78861 0.30583
IMU 25105.362534 -0.39726 -0.93607 0.0244 0.62966 -9.72788 0.2982
ODOM 25105.365625 4.64065
IMU 25105.37285 0.00808 -0.90684 -0.05833 0.58115 -9.76142 0.27346
IMU 25105.383005 -0.71741 -0.97542 0.20998 0.61645 -9.80915 0.29742
ODOM 25105.386334 4.6563
IMU 25105.393099 -1.13861 -1.00794 0.43555 0.67758 -9.74861 0.40393
IMU 25105.403291 -0.43383 -0.97471 0.0042 0.67396 -9.72504 0.39424
ODOM 25105.406132 4.68755
IMU 25105.414959 0.09169 -0.89953 0.05932 0.67611 -9.83037 0.3248
IMU 25105.42547 -0.29318 -1.04869 0.15518 0.67807 -9.75204 0.30837
ODOM 25105.426206 4.70315
IMU 25105.438028 -0.26982 -0.87203 0.19933 0.6412 -9.66362 0.3694
ODOM 25105.446466 4.76565
IMU 25105.473187 -0.58616 -1.02121 0.35848 0.6854 -9.68054 0.34104
IMU 25105.473337 -0.08556 -0.9547 0.32646 0.64413 -9.71888 0.34035
ODOM 25105.473375 4.75
IMU 25105.481819 0.1636 -1.05394 0.2143 0.6189 -9.77414 0.3114
ODOM 25105.48637 4.8125
IMU 25105.492755 -0.24104 -0.97572 0.49918 0.61547 -9.69286 0.3696
IMU 25105.502092 0.13675 -0.98391 0.25751 0.54867 -9.64924 0.43483
ODOM 25105.505873 4.8594
IMU 25105.512208 0.29128 -1.04979 0.24705 0.51444 -9.70079 0.36872
IMU 25105.52245 0.11069 -1.11792 0.44977 0.58555 -9.6824 0.32089
ODOM 25105.52605 4.8438
IMU 25105.532891 0.16137 -1.09953 0.30109 0.5964 -9.61746 0.33351
IMU 25105.543022 0.41073 -1.04711 0.08603 0.5252 -9.69267 0.35718
ODOM 25105.545885 4.89065
IMU 25105.553273 -0.12995 -1.15121 0.46648 0.5741 -9.77502 0.40177
IMU 25105.56342 -0.19289 -1.1212 0.44662 0.58437 -9.74343 0.41938
ODOM 25105.565987 4.89065
POSE 25105.451813 0 0 0 0 0 0 25105.56555
IMU 25105.574302 0.72724 -1.04898 0.24313 0.55924 -9.7313 0.3875
IMU 25105.585087 1.3704 -1.06702 0.02635 0.51728 -9.75634 0.30749
ODOM 25105.586806 4.89065
IMU 25105.595337 0.82223 -1.21878 0.32795 0.5431 -9.68455 0.31082
ODOM 25105.606075 4.9219
IMU 25105.607544 0.29452 -1.10889 0.37034 0.54036 -9.61364 0.40764
IMU 25105.630321 0.50881 -1.18333 0.28027 0.52471 -9.65404 0.37527
IMU 25105.630431 0.31744 -1.24934 0.42397 0.60511 -9.80231 0.30739
ODOM 25105.630458 4.9375
IMU 25105.640506 0.18371 -1.10068 0.46084 0.59259 -9.78235 0.29556
ODOM 25105.646309 4.93755
IMU 25105.653038 1.03294 -1.13998 0.22811 0.56442 -9.83468 0.34534
IMU 25105.663162 0.76277 -1.12757 0.37091 0.59073 -9.78441 0.32784
ODOM 25105.666284 4.9844
IMU 25105.673283 1.08247 -1.07944 0.2721 0.54789 -9.69081 0.32119
IMU 25105.683433 1.30467 -0.97449 0.22996 0.50642 -9.75213 0.22788
ODOM 25105.686238 5
IMU 25105.693595 0.5215 -1.25322 0.43642 0.5565 -9.8158 0.23306
IMU 25105.703846 0.07222 -1.13759 0.49378 0.54603 -9.77296 0.35092
ODOM 25105.705806 5.01565
IMU 25105.713881 0.77033 -1.25364 0.44089 0.54242 -9.80485 0.40324
IMU 25105.724188 1.1168 -1.18631 0.22974 0.55885 -9.85942 0.25399
ODOM 25105.726109 5.0313
IMU 25105.734356 0.71639 -1.08075 0.58977 0.56657 -9.88642 0.20861
IMU 25105.744659 0.83177 -1.12814 0.37106 0.47718 -9.7627 0.23355
ODOM 25105.74626 5.0625
IMU 25105.754783 0.94024 -1.21917 0.38949 0.48119 -9.86832 0.23756
IMU 25105.765063 0.45958 -1.2234 0.6058 0.50701 -9.8069 0.31238
ODOM 25105.765871 5.0625
IMU 25105.802945 0.4471 -1.22783 0.45213 0.49752 -9.78803 0.28617
IMU 25105.802972 0.75266 -1.18168 0.41072 0.48246 -9.79624 0.26847
IMU 25105.802994 0.48354 -1.31153 0.41498 0.47571 -9.89522 0.17614
ODOM 25105.803093 5.07815
ODOM 25105.806996 5.125
IMU 25105.812066 0.13791 -1.21363 0.31355 0.41253 -9.87272 0.27248
IMU 25105.823628 0.20732 -1.36163 0.56179 0.48823 -9.95498 0.25722
ODOM 25105.825947 5.1094
IMU 25105.833698 0.21506 -1.30397 0.57724 0.54633 -9.88016 0.25937
IMU 25105.844665 0.75128 -1.23591 0.45944 0.5207 -9.81424 0.2492
ODOM 25105.845962 5.1094
IMU 25105.854997 1.01164 -1.15134 0.30206 0.50046 -9.79106 0.24324
ODOM 25105.865782 5.14065
IMU 25105.866721 0.10639 -1.29863 0.61832 0.4897 -9.79673 0.25419
IMU 25105.876865 -0.2859 -1.23597 0.62636 0.45097 -9.74167 0.33947
ODOM 25105.886018 5.125
IMU 25105.887355 0.20613 -1.26093 0.48084 0.39894 -9.78597 0.31678
IMU 25105.897646 0.13088 -1.33931 0.60594 0.48471 -9.89346 0.2359
ODOM 25105.907845 5.1719
IMU 25105.90796 0.12104 -1.22858 0.64308 0.54711 -9.76103 0.26866
IMU 25105.918143 0.46779 -1.28366 0.43108 0.50417 -9.76543 0.343
ODOM 25105.925907 5.1875
IMU 25105.959569 -0.14076 -1.26258 0.7091 0.54907 -9.74431 0.34896
IMU 25105.959773 0.14655 -1.24221 0.65072 0.47982 -9.67369 0.31483
ODOM 25105.959816 5.20315
IMU 25105.961075 0.88874 -1.23907 0.3657 0.46124 -9.6601 0.26847
ODOM 25105.966528 5.18755
POSE 25105.609675 0.0221522 -0.0146971 1.51811 -0.00274833 -0.0225312 0.00638125 25105.987603
IMU 25105.970749 0.3116 -1.20174 0.47338 0.45938 -9.69091 0.27649
IMU 25105.981402 -0.21497 -1.35094 0.63564 0.47268 -9.70832 0.37615
ODOM 25105.986282 5.25
IMU 25105.991732 0.0008 -1.41134 0.6136 0.51542 -9.80055 0.28774
IMU 25106.002067 0.43285 -1.32558 0.63171 0.60276 -9.73648 0.26857
ODOM 25106.006507 5.2188
POSE 25105.927619 -0.0199111 0.0477848 1.96323 0.00235537 -0.0264391 0.000714952 25105.99662
IMU 25106.022916 0.98288 -1.11694 0.36027 0.54848 -9.66137 0.32637
ODOM 25106.02853 5.25
IMU 25106.033582 0.19417 -1.36156 0.54801 0.50505 -9.60602 0.34231
IMU 25106.044219 -0.13489 -1.23839 0.68592 0.43209 -9.59956 0.33498
ODOM 25106.046156 5.26565
IMU 25106.055783 0.14224 -1.34934 0.58589 0.40794 -9.69697 0.27492
ODOM 25106.067215 5.2344
IMU 25106.069147 -0.02591 -1.34533 0.63191 0.48491 -9.7893 0.26231
IMU 25106.079594 0.26731 -1.31033 0.49592 0.49703 -9.71731 0.33517
ODOM 25106.087119 5.26565
IMU 25106.114957 0.69381 -1.28864 0.35463 0.53117 -9.70812 0.32226
IMU 25106.115062 0.09524 -1.35054 0.47535 0.52501 -9.7493 0.26006
ODOM 25106.115096 5.2813
IMU 25106.118806 0.32258 -1.25059 0.58533 0.47141 -9.66636 0.30026
ODOM 25106.127216 5.28125
IMU 25106.131224 0.86261 -1.36886 0.25496 0.40911 -9.73355 0.27052
IMU 25106.14348 0.41231 -1.30333 0.49062 0.45449 -9.77208 0.30074
ODOM 25106.14635 5.2969
POSE 25106.087809 -0.030753 0.0867158 2.19277 0.00458436 -0.030363 0.00309764 25106.141522
IMU 25106.156165 0.25842 -1.36902 0.32447 0.43473 -9.78167 0.29928
ODOM 25106.166095 5.3125
IMU 25106.169773 0.5736 -1.35262 0.3804 0.47102 -9.86226 0.26016
IMU 25106.180598 0.24007 -1.33907 0.5497 0.44725 -9.8027 0.27414
ODOM 25106.186369 5.2969
IMU 25106.191406 0.57631 -1.22052 0.19054 0.40618 -9.76397 0.3341
IMU 25106.201539 -0.01798 -1.3899 0.56157 0.41909 -9.83996 0.24764
ODOM 25106.206133 5.3438
IMU 25106.211762 0.2615 -1.37962 0.41232 0.41723 -9.82852 0.20969
IMU 25106.222162 0.60475 -1.35485 0.16797 0.38564 -9.83732 0.27639
ODOM 25106.226301 5.32815
IMU 25106.232437 0.17379 -1.41389 0.40182 0.42681 -9.90647 0.28236
IMU 25106.242722 -0.08487 -1.32037 0.51565 0.43953 -9.8159 0.35278
ODOM 25106.245879 5.32815
IMU 25106.264671 0.39451 -1.36737 0.18826 0.34329 -9.83487 0.34211
IMU 25106.264813 0.87333 -1.3591 0.30955 0.35512 -9.84387 0.23825
ODOM 25106.266374 5.3594
IMU 25106.274374 0.28061 -1.39604 0.43566 0.37478 -9.85502 0.18289
IMU 25106.285474 -0.00409 -1.34173 0.44269 0.35825 -9.8071 0.29106
ODOM 25106.287541 5.3438
IMU 25106.294835 0.30049 -1.41393 0.29767 0.35591 -9.807 0.35512
IMU 25106.305152 0.30156 -1.43351 0.39689 0.41556 -9.89962 0.35454
ODOM 25106.306917 5.32815
IMU 25106.315804 0.29411 -1.4821 0.32286 0.41615 -9.84563 0.29742
ODOM 25106.326166 5.3594
POSE 25106.247192 -0.036816 0.0808436 2.42936 0.00323161 -0.034327 0.00423406 25106.336993
IMU 25106.326811 0.84575 -1.24716 0.15054 0.35884 -9.78353 0.29761
IMU 25106.337443 0.9315 -1.38722 0.0792 0.32295 -9.79517 0.31111
ODOM 25106.3466 5.32815
IMU 25106.348271 -0.06556 -1.4167 0.48045 0.33556 -9.82588 0.30299
IMU 25106.358823 -0.10474 -1.33784 0.37734 0.32608 -9.77355 0.33449
ODOM 25106.365989 5.3125
IMU 25106.374309 0.57953 -1.36599 0.24785 0.35747 -9.88857 0.24069
IMU 25106.384695 0.57805 -1.39025 0.08 0.37263 -9.78187 0.29576
ODOM 25106.387855 5.32815
IMU 25106.394817 0.73519 -1.4779 0.04311 0.36021 -9.73883 0.33586
IMU 25106.404981 0.32975 -1.28141 0.11382 0.32011 -9.76886 0.31287
ODOM 25106.406452 5.3594
IMU 25106.427296 -0.2829 -1.45837 0.2928 0.31385 -9.85786 0.27277
IMU 25106.427378 -0.14863 -1.43678 0.2624 0.30495 -9.83282 0.25116
ODOM 25106.427405 5.3594
IMU 25106.437439 0.78546 -1.35005 -0.16351 0.28519 -9.84348 0.23238
ODOM 25106.446502 5.375
IMU 25106.452658 1.00691 -1.3315 -0.10441 0.33126 -9.86666 0.276
IMU 25106.458435 0.46913 -1.38679 0.11145 0.34231 -9.73091 0.34221
ODOM 25106.466196 5.375
IMU 25106.468682 0.35521 -1.37118 -0.08505 0.34642 -9.74626 0.36901
IMU 25106.478942 0.28801 -1.40626 0.02365 0.35581 -9.82333 0.30828
ODOM 25106.486148 5.3594
IMU 25106.489159 0.12338 -1.46133 0.02472 0.34798 -9.847 0.25272
IMU 25106.499505 0.67314 -1.28091 -0.09443 0.32119 -9.79233 0.2847
ODOM 25106.506422 5.34375
IMU 25106.510067 0.96034 -1.34278 -0.35532 0.28353 -9.80319 0.30309
IMU 25106.520625 0.39527 -1.23971 -0.03007 0.33312 -9.82412 0.34065
ODOM 25106.525967 5.32815
POSE 25106.408831 -0.033298 0.0772445 2.65663 0.00227972 -0.0382536 0.0024615 25106.532107
IMU 25106.531609 0.42049 -1.26566 -0.12825 0.32598 -9.79301 0.28118
IMU 25106.541993 0.51846 -1.30977 -0.18718 0.34857 -9.78852 0.23199
ODOM 25106.546092 5.3125
IMU 25106.552272 0.21409 -1.27701 -0.07717 0.36363 -9.77688 0.28187
IMU 25106.562501 0.21977 -1.29246 -0.20005 0.33087 -9.71986 0.33067
ODOM 25106.566195 5.2969
IMU 25106.589081 0.3328 -1.26699 -0.10917 0.29673 -9.77032 0.30094
IMU 25106.589162 -0.10748 -1.2906 0.03209 0.34251 -9.86793 0.23179
ODOM 25106.589187 5.3125
IMU 25106.593747 -0.04218 -1.19739 -0.06328 0.35033 -9.78891 0.21888
IMU 25106.604043 0.68752 -1.21374 -0.34899 0.33312 -9.73678 0.26348
ODOM 25106.607279 5.3125
IMU 25106.614228 0.33566 -1.08909 -0.30827 0.34319 -9.8069 0.27678
IMU 25106.624583 -0.3367 -1.3033 0.02592 0.36784 -9.74049 0.25761
ODOM 25106.626158 5.3125
IMU 25106.634586 -0.21514 -1.14453 -0.15508 0.38515 -9.72514 0.23326
IMU 25106.644757 0.17659 -1.11438 -0.20771 0.33185 -9.75292 0.16108
ODOM 25106.645888 5.32815
IMU 25106.654873 -0.35128 -1.14158 -0.06832 0.38965 -9.82539 0.19287
IMU 25106.665218 -0.54864 -1.19986 0.01039 0.37018 -9.73502 0.24011
ODOM 25106.666073 5.34375
POSE 25106.567667 -0.0386426 0.0925494 2.87759 0.00210351 -0.0417763 0.000302374 25106.675276
IMU 25106.675517 -0.17513 -1.07021 -0.09843 0.34994 -9.7002 0.26847
IMU 25106.685944 -0.14455 -1.15876 -0.18346 0.36353 -9.74049 0.21693
ODOM 25106.686989 5.34375
IMU 25106.696279 -0.58062 -1.13347 -0.00897 0.34857 -9.71819 0.14221
IMU 25106.707168 -0.63834 -1.14609 -0.05062 0.33312 -9.66303 0.19032
ODOM 25106.707384 5.32815
IMU 25106.717758 -0.69327 -1.11696 -0.17724 0.30749 -9.72044 0.23199
ODOM 25106.72741 5.34375
IMU 25106.752926 -1.20244 -1.17953 0.05435 0.34759 -9.73707 0.31678
IMU 25106.753018 -0.50914 -1.01984 -0.30016 0.28167 -9.76133 0.24216
ODOM 25106.753201 5.34375
IMU 25106.75787 -0.37048 -1.19876 -0.12529 0.33488 -9.75018 0.23522
ODOM 25106.765611 5.32815
IMU 25106.768163 -1.24982 -1.17209 -0.07872 0.34984 -9.72025 0.23619
IMU 25106.778295 -1.37044 -1.14081 -0.0159 0.35248 -9.66196 0.30808
ODOM 25106.786207 5.32815
IMU 25106.788461 -1.20297 -1.12655 -0.22831 0.29556 -9.7582 0.33116
IMU 25106.798604 -1.42019 -1.20284 0.0275 0.30084 -9.79702 0.3292
ODOM 25106.805761 5.31255
IMU 25106.808875 -1.1246 -1.08746 -0.24798 0.29018 -9.75409 0.30769
IMU 25106.819188 -0.65239 -1.16096 -0.29489 0.27708 -9.69335 0.30074
ODOM 25106.825813 5.31255
POSE 25106.728175 -0.0624252 0.108555 3.09462 0.00160001 -0.0434746 -0.00210112 25106.843529
IMU 25106.829379 -1.1124 -1.13122 -0.42128 0.31228 -9.72035 0.29664
IMU 25106.839618 -2.22338 -1.1247 0.20434 0.35649 -9.76729 0.3426
ODOM 25106.846158 5.3125
IMU 25106.849878 -2.06178 -1.13739 -0.14985 0.35004 -9.72514 0.37439
IMU 25106.863004 -0.55808 -0.99584 -0.40963 0.30867 -9.81287 0.34035
ODOM 25106.86751 5.2969
IMU 25106.873937 -1.04584 -0.97484 -0.32138 0.31708 -9.72895 0.36921
ODOM 25106.886318 5.2813
IMU 25106.91668 -1.02472 -1.02415 -0.36932 0.26593 -9.65902 0.4319
ODOM 25106.916711 5.2813
IMU 25106.922209 -0.21221 -0.86804 -0.78624 0.29683 -9.71634 0.37126
ODOM 25106.926177 5.2969
IMU 25106.936114 -0.65186 -1.01912 -0.42447 0.30691 -9.776 0.37283
IMU 25106.942175 -1.3905 -0.91037 -0.16705 0.33527 -9.70744 0.47141
ODOM 25106.94645 5.3125
IMU 25106.952264 -1.11084 -1.04204 -0.33493 0.28617 -9.73335 0.46378
IMU 25106.962477 -0.43625 -1.02452 -0.33037 0.35718 -9.7802 0.39327
ODOM 25106.966638 5.3125
POSE 25106.89097 -0.076031 0.125737 3.33496 0.00115643 -0.0457279 -0.00107661 25106.965851
IMU 25106.972608 -0.01896 -0.98945 -0.52918 0.38877 -9.72172 0.32764
IMU 25106.982756 -0.27513 -0.9129 -0.4848 0.37283 -9.68318 0.40314
ODOM 25106.986212 5.2969
IMU 25106.992873 -0.3744 -0.87353 -0.45433 0.32158 -9.65619 0.48794
IMU 25107.003115 -0.93192 -0.97263 -0.16477 0.32373 -9.83898 0.4672
ODOM 25107.006442 5.28125
IMU 25107.013293 -0.78073 -1.00037 -0.19049 0.31121 -9.78705 0.46525
IMU 25107.023577 0.58389 -0.87341 -0.63663 0.29321 -9.75526 0.41116
ODOM 25107.025978 5.28125
IMU 25107.033833 0.98013 -0.78932 -0.78724 0.28901 -9.76475 0.3917
IMU 25107.045025 -0.18967 -0.9939 -0.35861 0.37038 -9.7491 0.39415
ODOM 25107.047256 5.28125
IMU 25107.076243 -0.9337 -0.92324 -0.10574 0.40872 -9.70372 0.43112
IMU 25107.076316 -0.26359 -0.87638 -0.41025 0.37635 -9.77737 0.44813
ODOM 25107.076342 5.2969
IMU 25107.078912 0.11323 -0.8117 -0.40685 0.34436 -9.91869 0.37664
ODOM 25107.086852 5.2813
IMU 25107.093361 0.89219 -0.62778 -0.71085 0.22328 -9.7669 0.37869
IMU 25107.103831 0.6445 -0.72092 -0.44661 0.2627 -9.7847 0.36353
ODOM 25107.106375 5.2813
IMU 25107.114597 -0.02175 -0.70703 -0.16724 0.34749 -9.76045 0.3341
IMU 25107.124751 -0.23139 -0.6625 -0.23002 0.37801 -9.77208 0.3828
ODOM 25107.126223 5.28125
IMU 25107.134853 0.4303 -0.73934 -0.38874 0.35346 -9.82333 0.38965
IMU 25107.145095 0.43774 -0.68887 -0.41842 0.40706 -9.91224 0.37097
ODOM 25107.145842 5.28125
IMU 25107.155325 0.54112 -0.68226 -0.38808 0.36666 -9.79918 0.39493
IMU 25107.165604 0.63937 -0.6432 -0.47966 0.30632 -9.79722 0.38476
ODOM 25107.166423 5.2969
POSE 25107.051587 -0.094549 0.142009 3.56165 0.00133049 -0.047326 -0.0013063 25107.180069
IMU 25107.175934 0.41673 -0.62329 -0.33872 0.29781 -9.81072 0.33077
ODOM 25107.186899 5.2813
IMU 25107.187583 -0.0773 -0.74561 -0.18733 0.31688 -9.82979 0.29233
IMU 25107.198059 0.11243 -0.66222 -0.25708 0.35101 -9.77316 0.28656
ODOM 25107.206063 5.2813
IMU 25107.23626 0.30991 -0.71559 -0.29878 0.41009 -9.85884 0.31874
IMU 25107.236343 -0.18631 -0.71488 -0.05004 0.48843 -9.86588 0.36304
IMU 25107.236368 0.44335 -0.65894 -0.24304 0.37537 -9.8828 0.31766
ODOM 25107.236395 5.2969
IMU 25107.243076 0.59581 -0.73046 -0.1924 0.4053 -9.8338 0.23551
ODOM 25107.246867 5.28125
IMU 25107.255589 0.32243 -0.60899 -0.12915 0.38808 -9.7804 0.26104
IMU 25107.263666 0.28773 -0.71892 -0.10129 0.39718 -9.75057 0.34339
ODOM 25107.266759 5.26565
IMU 25107.273996 -0.07166 -0.71708 -0.04974 0.48618 -9.80563 0.35903
IMU 25107.284668 -0.29959 -0.73423 0.12284 0.52139 -9.81893 0.3917
ODOM 25107.286197 5.2813
IMU 25107.29507 0.38897 -0.69223 -0.09212 0.49029 -9.80573 0.37635
IMU 25107.305415 0.7604 -0.62732 -0.24772 0.48843 -9.84935 0.3561
ODOM 25107.306477 5.2969
POSE 25107.210414 -0.0968525 0.143617 3.7999 0.000497325 -0.0498325 -0.000886263 25107.295322
IMU 25107.315704 0.59902 -0.57583 -0.01298 0.4719 -9.77805 0.38349
ODOM 25107.32621 5.28125
IMU 25107.326548 0.62806 -0.61213 -0.13299 0.44099 -9.68827 0.42887
IMU 25107.33691 0.23987 -0.67119 0.03188 0.44031 -9.74186 0.3963
ODOM 25107.346036 5.2969
IMU 25107.347221 0.00346 -0.76412 0.17641 0.52383 -9.75869 0.36793
IMU 25107.357352 0.1828 -0.52488 -0.06933 0.52041 -9.70978 0.40666
ODOM 25107.365819 5.31255
IMU 25107.387928 0.51911 -0.54061 -0.05576 0.50359 -9.7579 0.41693
IMU 25107.38806 0.4783 -0.60124 0.01969 0.54975 -9.70871 0.42398
ODOM 25107.38809 5.32815
IMU 25107.388669 0.39295 -0.52812 -0.02832 0.47747 -9.6868 0.41987
IMU 25107.399295 0.60116 -0.5818 -0.07898 0.42535 -9.67096 0.35072
ODOM 25107.406685 5.3594
POSE 25107.370814 -0.0998277 0.160554 4.03642 -0.000420043 -0.052838 -0.00263245 25107.405757
IMU 25107.415503 -0.09309 -0.64842 0.07066 0.48324 -9.71008 0.33674
IMU 25107.425916 0.42993 -0.59544 -0.16627 0.49831 -9.65218 0.37644
ODOM 25107.427431 5.3594
IMU 25107.436304 0.57743 -0.4975 -0.27733 0.51317 -9.70656 0.39581
ODOM 25107.446998 5.37505
IMU 25107.451365 0.35293 -0.62521 -0.14887 0.51982 -9.6602 0.34612
IMU 25107.461445 0.2485 -0.60902 -0.18988 0.44725 -9.74646 0.23854
ODOM 25107.466259 5.39065
IMU 25107.471571 -0.18731 -0.62256 -0.2409 0.46046 -9.71252 0.27463
IMU 25107.48171 0.04242 -0.52766 -0.30709 0.41214 -9.71614 0.35679
ODOM 25107.486271 5.3594
IMU 25107.492028 0.61963 -0.6222 -0.41037 0.38221 -9.69179 0.29038
IMU 25107.502607 0.12685 -0.6834 -0.51852 0.50222 -9.72749 0.21106
ODOM 25107.506202 5.39065
IMU 25107.512978 -0.5241 -0.68677 -0.24209 0.50818 -9.73766 0.22984
IMU 25107.523344 -0.63639 -0.75081 -0.33784 0.45449 -9.75546 0.31649
ODOM 25107.526075 5.4219
IMU 25107.549217 -0.34909 -0.65469 -0.36216 0.43943 -9.83849 0.29957
IMU 25107.549284 -0.2131 -0.66472 -0.50197 0.4586 -9.79908 0.29673
ODOM 25107.549313 5.4219
IMU 25107.554468 0.17146 -0.6329 -0.6225 0.39874 -9.77932 0.25624
IMU 25107.565365 -0.01461 -0.66591 -0.52524 0.38446 -9.78069 0.23121
ODOM 25107.566466 5.43755
IMU 25107.575683 -0.80436 -0.72781 -0.35615 0.43884 -9.79624 0.26974
IMU 25107.585999 -1.21176 -0.69364 -0.26945 0.39825 -9.81248 0.33009
ODOM 25107.586316 5.43755
IMU 25107.597051 -0.62466 -0.7841 -0.42962 0.41126 -9.86343 0.30329
ODOM 25107.606327 5.45315
IMU 25107.607357 -0.24174 -0.77866 -0.53659 0.45175 -9.92368 0.26241
IMU 25107.617706 -0.50998 -0.71898 -0.41192 0.40647 -9.89072 0.28911
ODOM 25107.625902 5.46875
POSE 25107.527239 -0.124102 0.163539 4.26017 0.00180533 -0.054914 -0.0125731 25107.627328
IMU 25107.627988 -0.23065 -0.74133 -0.43876 0.36412 -9.82969 0.3162
IMU 25107.6382 -0.56725 -0.76583 -0.45445 0.33302 -9.86676 0.334
ODOM 25107.646228 5.4844
IMU 25107.65194 -0.85675 -0.8607 -0.18522 0.36295 -9.8647 0.34231
IMU 25107.658716 -0.88133 -0.90881 -0.46498 0.29566 -9.94187 0.17585
ODOM 25107.666239 5.4688
IMU 25107.669055 -2.05251 -0.77782 0.04737 0.1067 -10.3169 0.10543
IMU 25107.679197 -2.47428 -0.95377 0.34061 0.0224 -10.1677 0.32696
ODOM 25107.686274 5.4688
IMU 25107.705192 -1.82693 -0.70612 -0.3513 -0.15336 -10.3581 0.41781
IMU 25107.705283 -1.17693 -0.87907 0.06263 -0.25928 -10.3378 0.29781
ODOM 25107.70652 5.46875
IMU 25107.709816 -0.93802 -0.63521 -0.40632 -0.21311 -10.1015 0.16167
IMU 25107.72001 -1.93171 -0.53489 0.05739 -0.3339 -10.1848 0.17605
ODOM 25107.726725 5.4844
IMU 25107.732376 -3.79915 -0.69577 0.47041 -0.37087 -10.1921 0.25341
IMU 25107.740832 -5.82932 -0.65856 1.09888 -0.28343 -10.5471 0.31131
ODOM 25107.746057 5.4844
IMU 25107.751244 -5.49549 -0.65728 1.30511 -0.00782 -10.7759 0.30153
IMU 25107.761716 -3.4166 -0.71471 0.96396 0.08352 -10.6594 0.17575
ODOM 25107.768502 5.4844
IMU 25107.772319 -2.52184 -0.60305 0.93043 0.09184 -10.2721 0.10132
IMU 25107.784265 -3.29201 -0.89877 1.29317 0.03668 -9.83194 -0.12626
ODOM 25107.787109 5.45315
IMU 25107.802072 -6.51934 -1.27117 1.67276 0.01985 -9.88857 -0.18338
ODOM 25107.806541 5.375
IMU 25107.812433 -10.2254 -1.49281 3.69801 0.10093 -10.1299 -0.00235
IMU 25107.822668 -7.58607 -1.69136 2.52813 0.2805 -10.0049 0.10396
ODOM 25107.826283 5.3594
POSE 25107.690696 -0.128144 0.192419 4.49301 0.00449589 -0.0602614 -0.0114336 25107.826158
IMU 25107.833964 -2.54698 -1.167 1.4783 0.43043 -10.134 0.20421
IMU 25107.845065 0.81004 -1.29384 1.0464 0.50721 -9.56621 0.18993
ODOM 25107.845886 5.32815
IMU 25107.863031 1.42509 -1.18726 1.06675 0.53821 -8.94604 0.29517
IMU 25107.865702 -1.02324 -1.49773 1.29556 0.414 -8.69958 0.49078
ODOM 25107.866231 5.32815
IMU 25107.875796 -4.59761 -2.00614 2.22619 0.49205 -8.95103 0.59494
IMU 25107.886062 -5.90334 -1.81891 2.49422 0.54134 -9.07974 0.975
ODOM 25107.886308 5.31255
POSE 25107.848047 -0.152866 0.190687 4.72863 -0.00030525 -0.0606153 0.0111199 25107.890663
IMU 25107.896844 -2.81169 -1.92184 1.44066 0.41811 -9.26302 1.14449
ODOM 25107.905963 5.28125
IMU 25107.907265 2.34936 -1.61026 0.37765 0.44187 -9.0058 1.13637
IMU 25107.917409 4.91413 -1.39493 -0.74172 0.50427 -8.68129 0.97441
ODOM 25107.92625 5.26565
IMU 25107.927643 3.47388 -1.46135 -0.00859 0.60335 -8.43404 0.97069
IMU 25107.937966 1.20417 -1.47836 0.19324 0.72589 -8.19775 1.16317
ODOM 25107.946722 5.2969
IMU 25107.948111 0.12075 -1.52294 0.21434 0.75113 -8.52177 1.2377
IMU 25107.967655 1.45941 -1.26729 -0.22093 0.75416 -8.60657 1.34166
ODOM 25107.967769 5.2969
IMU 25107.98006 7.94132 -0.83535 -2.32224 0.63572 -8.66359 0.86135
ODOM 25107.986386 5.3125
IMU 25107.990415 6.16325 -0.56904 -1.77093 0.36324 -9.01998 0.85763
IMU 25108.000544 3.08331 -0.71513 -0.50535 -0.07482 -9.33745 1.12561
ODOM 25108.006329 5.31255
IMU 25108.029536 6.73768 -0.69044 -1.33864 -0.21702 -10.0061 1.09784
IMU 25108.029611 12.7941 -0.82246 -3.07363 -0.17086 -9.651 0.75817
ODOM 25108.029639 5.32815
IMU 25108.03571 14.2421 -0.16471 -3.50246 -0.20822 -9.46978 0.7258
IMU 25108.045258 9.80764 -0.94165 -2.01793 -0.29468 -9.53276 0.53449
ODOM 25108.046307 5.32815
IMU 25108.055357 3.00411 -1.2098 -0.23399 -0.08049 -10.054 0.41909
IMU 25108.065468 1.35883 -1.27455 0.4419 -0.02005 -10.7094 0.43248
ODOM 25108.066141 5.32815
POSE 25108.0078 -0.157907 0.208789 4.94412 0.000940839 -0.0629309 0.0114086 25108.079308
IMU 25108.075616 6.43469 -1.01107 -0.55337 0.1293 -11.1076 0.46339
IMU 25108.085755 12.7525 -0.31888 -1.64329 0.05203 -11.1624 0.343
ODOM 25108.086164 5.32815
IMU 25108.095871 17.1761 -0.21903 -2.03182 -0.0222 -10.4355 0.20206
ODOM 25108.106692 5.2969
IMU 25108.107527 15.8746 0.14815 -2.16707 -0.10621 -9.86911 0.18035
IMU 25108.118164 9.15849 -0.36367 0.00438 -0.16861 -10.0482 0.20676
ODOM 25108.128413 5.2344
IMU 25108.128636 4.30173 -0.88538 1.42142 0.09526 -10.086 0.11238
IMU 25108.138668 2.73487 -0.42448 1.14467 0.32216 -10.9078 0.05536
ODOM 25108.147519 5.1719
IMU 25108.14976 5.5033 -0.53361 1.44395 0.36598 -11.2488 0.16372
IMU 25108.159975 11.132 -0.327 -0.45903 0.68716 -10.6673 0.10279
ODOM 25108.166745 5.14065
IMU 25108.194542 9.22741 -0.22631 0.67058 0.41322 -9.78323 -0.24646
IMU 25108.194616 -0.14235 -0.48839 1.7431 0.32637 -9.93796 -0.63386
ODOM 25108.194644 5.12505
IMU 25108.202799 -2.01707 -0.88898 2.11843 0.34837 -10.008 -0.66066
ODOM 25108.206441 5.1094
IMU 25108.214494 -0.0034 -0.54284 1.04944 0.51484 -10.1695 -0.66966
IMU 25108.225048 2.93844 -0.45617 0.41331 0.54975 -9.9852 -0.67826
ODOM 25108.227144 5.125
IMU 25108.235669 3.94503 -0.64307 -0.49402 0.68736 -9.38547 -0.82741
ODOM 25108.246986 5.14065
POSE 25108.168868 -0.181582 0.203302 5.18044 -0.00275812 -0.0695449 -0.0119009 25108.23971
IMU 25108.24891 1.00348 -0.65707 0.07552 0.76472 -9.1213 -0.93089
IMU 25108.259383 -3.46959 -1.1195 0.54879 0.81196 -8.80648 -0.87074
ODOM 25108.266985 5.1719
IMU 25108.270526 -6.27181 -1.28389 0.56312 0.93969 -8.95905 -0.79739
IMU 25108.281027 -6.84532 -1.25612 0.21391 0.82917 -9.07006 -0.64892
ODOM 25108.286936 5.1875
IMU 25108.29639 -5.22771 -1.47828 -1.0793 0.73049 -9.00844 -0.74858
ODOM 25108.306769 5.2188
IMU 25108.307101 -6.16477 -1.75611 -1.55775 0.72795 -8.75229 -0.71122
IMU 25108.317644 -9.10741 -1.86537 -1.23598 0.65949 -8.91161 -0.76541
ODOM 25108.326612 5.2344
IMU 25108.350954 -13.1603 -2.32178 -0.15197 0.48217 -9.51877 -0.35659
ODOM 25108.351031 5.2969
IMU 25108.351562 -5.74925 -2.0238 -2.68965 0.58036 -9.6066 -0.15463
IMU 25108.36157 -7.94652 -2.2206 -2.02808 0.45469 -9.27779 0.2671
ODOM 25108.366269 5.3125
IMU 25108.372299 -10.8675 -2.89952 -1.68375 0.4409 -9.35535 0.35229
IMU 25108.382741 -13.8107 -2.69713 -0.60271 0.48745 -9.96251 0.57137
ODOM 25108.386447 5.2969
IMU 25108.39303 -13.5569 -3.00296 -0.63707 0.44618 -10.2396 0.84678
IMU 25108.403181 -8.90751 -2.48674 -1.68306 0.45527 -10.3266 1.03505
ODOM 25108.406432 5.2969
IMU 25108.413582 -4.35029 -2.14128 -2.66942 0.3337 -10.1057 1.05617
IMU 25108.424342 -3.63327 -2.07578 -2.31452 0.31307 -9.85639 0.99867
ODOM 25108.426494 5.32815
POSE 25108.327511 -0.193396 0.223118 5.41219 -0.00235062 -0.0727622 -0.00886804 25108.444611
IMU 25108.434833 -5.63224 -1.74819 -1.89908 0.21116 -9.41814 1.13637
IMU 25108.445075 -9.1998 -2.15109 -1.08 0.24148 -9.89786 1.11583
ODOM 25108.446218 5.3438
IMU 25108.455334 -10.8313 -2.04544 0.15754 0.44843 -10.2506 1.18126
IMU 25108.465703 -7.84179 -1.75053 -0.75445 0.60305 -10.3977 1.29628
ODOM 25108.465815 5.3438
IMU 25108.475683 -3.16566 -1.18573 -1.37241 0.55669 -10.6395 1.28552
IMU 25108.485806 -0.06282 -0.94414 -1.54111 0.4895 -10.3624 1.20102
ODOM 25108.486346 5.3594
IMU 25108.503479 0.38184 -0.66323 -1.25311 0.41087 -10.0698 1.07358
IMU 25108.506952 -0.61978 -0.60151 -0.72501 0.26231 -9.86862 1.03251
ODOM 25108.507122 5.375
IMU 25108.517114 -2.14218 -0.89039 -0.13562 0.26192 -10.1124 0.98771
ODOM 25108.527817 5.39065
IMU 25108.535451 -0.21228 -0.84012 0.1072 0.39659 -10.4328 1.10077
IMU 25108.545577 2.92924 -0.69102 -0.14216 0.50212 -10.4934 1.02987
ODOM 25108.547716 5.39065
POSE 25108.487445 -0.223489 0.232278 5.65389 -0.0001603 -0.0751943 -0.00317872 25108.547072
IMU 25108.555748 4.60151 -0.68491 -0.25268 0.59386 -10.2284 0.91681
ODOM 25108.567269 5.4063
IMU 25108.568505 4.47837 -0.63832 -0.0322 0.5433 -10.0189 0.82996
IMU 25108.578931 2.94654 -0.9268 0.69561 0.49479 -10.0004 0.70927
ODOM 25108.58635 5.4375
IMU 25108.589279 1.98088 -1.00902 1.19897 0.48872 -10.0143 0.6367
IMU 25108.599596 2.75942 -0.99296 1.01518 0.45459 -10.0488 0.64609
ODOM 25108.606175 5.4844
IMU 25108.610232 4.63454 -0.92876 0.51044 0.34202 -10.0526 0.51836
IMU 25108.620277 5.2199 -1.04083 0.85226 0.36402 -10.027 0.39141
ODOM 25108.626529 5.4688
IMU 25108.63042 4.61523 -1.08143 0.97086 0.38231 -9.77267 0.36304
IMU 25108.640561 3.99715 -1.19448 1.05527 0.35591 -9.77091 0.30143
ODOM 25108.646071 5.4844
IMU 25108.664589 3.13984 -1.19018 1.44043 0.50799 -9.83409 0.12
IMU 25108.664672 4.06844 -1.14623 1.07644 0.46505 -9.7935 0.14045
ODOM 25108.66654 5.51565
IMU 25108.671486 4.53474 -1.11024 0.9754 0.45488 -9.80495 0.13487
IMU 25108.681677 3.61068 -0.96969 1.30712 0.44011 -9.71839 0.13614
ODOM 25108.686147 5.5469
POSE 25108.651216 -0.262566 0.237729 5.89612 0.000275549 -0.0784153 -0.00620612 25108.690046
IMU 25108.691982 2.83446 -1.06987 1.3412 0.35414 -9.65707 0.17164
IMU 25108.70205 2.37372 -0.99635 1.32732 0.3115 -9.7578 0.07511
ODOM 25108.706311 5.56255
IMU 25108.712178 1.87069 -1.00641 1.53808 0.38916 -9.75213 0.04382
IMU 25108.72232 2.39284 -0.85927 1.04951 0.36177 -9.66157 0.07609
ODOM 25108.726007 5.56255
IMU 25108.732597 2.43331 -0.74764 0.94616 0.34759 -9.62919 0.10035
IMU 25108.742831 1.2758 -0.94332 1.15606 0.42583 -9.62176 0.10905
ODOM 25108.746512 5.5469
IMU 25108.752898 0.25693 -0.89731 1.25823 0.45234 -9.52415 0.11472
IMU 25108.763169 -0.23951 -0.95881 1.01182 0.44432 -9.63301 0.09066
ODOM 25108.76723 5.5625
IMU 25108.773633 -0.69295 -0.95405 1.19556 0.48188 -9.71164 0.07854
IMU 25108.785467 -0.35712 -0.92371 0.88442 0.49469 -9.58851 0.12059
ODOM 25108.786522 5.57815
IMU 25108.79561 0.02189 -1.05827 0.64101 0.41938 -9.55702 0.07678
IMU 25108.805865 -0.35654 -1.06743 0.68161 0.44021 -9.54127 -0.00196
ODOM 25108.80601 5.57815
IMU 25108.821819 -1.40662 -1.20975 0.84502 0.46368 -9.45197 0.02963
IMU 25108.826326 -1.74664 -1.30527 0.67699 0.4363 -9.43496 0.10338
ODOM 25108.826547 5.57815
IMU 25108.83632 -1.69698 -1.40307 0.67667 0.48334 -9.53257 0.11189
ODOM 25108.845961 5.57815
IMU 25108.846424 -1.68876 -1.3565 0.6292 0.55044 -9.49853 0.17546
IMU 25108.857184 -1.26905 -1.48103 0.21728 0.55112 -9.46586 0.20568
ODOM 25108.866098 5.57815
IMU 25108.867588 -1.40131 -1.58407 0.27301 0.53244 -9.55809 0.17888
IMU 25108.877744 -2.03662 -1.63232 0.4597 0.58584 -9.49051 0.26309
ODOM 25108.886301 5.57815
IMU 25108.891539 -1.92791 -1.52974 0.1207 0.57048 -9.47946 0.37879
IMU 25108.898332 -1.65668 -1.6747 0.10331 0.48559 -9.54528 0.45664
ODOM 25108.907063 5.6094
IMU 25108.909056 -1.68724 -1.77686 0.07963 0.53215 -9.57462 0.43346
IMU 25108.919213 -1.55241 -1.5734 -0.08907 0.503 -9.49305 0.46662
ODOM 25108.926859 5.625
POSE 25108.811129 -0.285013 0.24299 6.14165 -0.00159619 -0.0816217 -0.0058285 25108.933608
IMU 25108.929486 -1.24851 -1.69859 -0.15042 0.46535 -9.55242 0.47953
IMU 25108.939678 -1.7254 -1.71294 0.09469 0.54466 -9.6291 0.47082
ODOM 25108.946597 5.59375
IMU 25108.94987 -2.14354 -1.55507 0.01612 0.5741 -9.59027 0.59406
IMU 25108.960009 -1.37625 -1.52559 -0.19997 0.52794 -9.71604 0.58193
ODOM 25108.966219 5.6094
IMU 25108.990449 -0.50782 -1.39171 -0.3294 0.56207 -9.65237 0.55396
IMU 25108.99055 -0.24696 -1.24104 -0.51519 0.45097 -9.61707 0.57704
ODOM 25108.990578 5.62505
IMU 25108.992451 -0.79068 -1.26256 -0.26037 0.43581 -9.74421 0.51767
IMU 25109.002574 -1.41677 -1.2309 -0.01098 0.4943 -9.74519 0.52598
ODOM 25109.005983 5.64065
IMU 25109.013501 -0.79617 -1.20185 -0.3305 0.44412 -9.78656 0.56188
IMU 25109.024245 -0.01047 -1.21623 -0.38004 0.45469 -9.90764 0.55014
ODOM 25109.026101 5.6719
IMU 25109.034511 0.18622 -1.09644 -0.38289 0.51034 -9.82451 0.55083
IMU 25109.044647 0.4835 -1.0563 -0.47919 0.46319 -9.77326 0.52735
ODOM 25109.046659 5.64065
IMU 25109.054796 0.33003 -1.16809 -0.32871 0.46124 -9.81815 0.42036
IMU 25109.064989 -0.13586 -1.20093 -0.12056 0.52325 -9.85179 0.37341
ODOM 25109.066385 5.64065
IMU 25109.075293 0.14937 -1.04659 -0.18065 0.49889 -9.82979 0.47327
IMU 25109.085582 0.67947 -1.29036 -0.34847 0.39121 -9.88329 0.44373
ODOM 25109.086424 5.6875
POSE 25108.971754 -0.301582 0.273969 6.39611 -0.000227407 -0.0859003 -0.00456912 25109.092597
IMU 25109.095888 0.77598 -1.28614 -0.20521 0.43473 -9.90334 0.38798
IMU 25109.106423 1.10935 -1.20718 -0.2902 0.43728 -9.79174 0.38378
ODOM 25109.108311 5.7188
IMU 25109.117378 1.05363 -1.34876 -0.29976 0.41556 -9.86646 0.34348
ODOM 25109.12639 5.7344
IMU 25109.127542 0.68989 -1.44735 -0.1558 0.49449 -9.83693 0.33057
IMU 25109.15145 0.83689 -1.41146 -0.15593 0.512 -9.77639 0.39884
IMU 25109.151532 1.0487 -1.52578 -0.12697 0.49684 -9.87331 0.3519
ODOM 25109.151558 5.7344
IMU 25109.161509 0.95366 -1.4382 -0.16044 0.51435 -9.77629 0.38212
ODOM 25109.166103 5.7344
IMU 25109.171906 1.47957 -1.35237 -0.24024 0.45821 -9.76318 0.38006
IMU 25109.182404 1.43528 -1.44408 -0.18675 0.45224 -9.75262 0.35473
ODOM 25109.186207 5.75005
IMU 25109.192783 1.03214 -1.41967 -0.16625 0.47327 -9.68827 0.36725
IMU 25109.203231 0.75495 -1.37693 -0.16102 0.4361 -9.73013 0.36608
ODOM 25109.206116 5.75005
POSE 25109.127679 -0.333212 0.262759 6.65783 -0.00375723 -0.0891359 -0.00267664 25109.194707
IMU 25109.213687 0.42723 -1.47205 0.08116 0.49987 -9.82754 0.32373
IMU 25109.223971 0.57614 -1.31973 0.12879 0.54242 -9.78128 0.35414
ODOM 25109.225856 5.7969
IMU 25109.234599 1.40835 -1.06743 -0.38217 0.45772 -9.72749 0.39464
IMU 25109.244812 1.8152 -1.20068 -0.40156 0.42955 -9.71399 0.34593
ODOM 25109.246867 5.8125
IMU 25109.255224 0.78575 -1.17674 -0.19565 0.47611 -9.68788 0.27815
IMU 25109.265388 0.18759 -1.0191 -0.09632 0.44158 -9.67223 0.30407
ODOM 25109.266364 5.7969
IMU 25109.275802 -0.15122 -1.09845 0.04513 0.43415 -9.79008 0.31982
IMU 25109.286013 0.1186 -1.07995 -0.08896 0.47601 -9.80925 0.31493
ODOM 25109.28687 5.7969
IMU 25109.31468 0.62218 -1.05154 -0.24888 0.46408 -9.80182 0.30456
IMU 25109.314744 0.94618 -0.9234 -0.40924 0.41019 -9.80162 0.25086
ODOM 25109.31477 5.81255
IMU 25109.320099 0.26192 -1.05365 -0.10084 0.44129 -9.79419 0.23923
ODOM 25109.326779 5.82815
IMU 25109.331947 -0.07076 -1.01346 -0.0479 0.35522 -9.81932 0.30338
IMU 25109.342445 -0.155 -1.10226 -0.01912 0.42261 -9.86128 0.2536
ODOM 25109.346398 5.8125
POSE 25109.291601 -0.364412 0.288122 6.90197 -0.00489916 -0.0907675 -0.00885321 25109.350173
IMU 25109.352361 -0.02277 -1.14045 -0.06472 0.42388 -9.82069 0.2537
IMU 25109.362504 0.13389 -1.03875 -0.11301 0.38622 -9.84211 0.2759
ODOM 25109.366263 5.8594
IMU 25109.372948 -0.13019 -1.13397 0.01046 0.40109 -9.88495 0.28236
IMU 25109.383197 -0.42333 -1.25737 0.14381 0.41742 -9.83595 0.34378
ODOM 25109.386193 5.87505
IMU 25109.393462 0.13414 -1.26934 -0.19526 0.36666 -9.78587 0.36168
IMU 25109.404964 0.33843 -1.2984 -0.08015 0.37018 -9.85326 0.32343
ODOM 25109.405987 5.89065
IMU 25109.415405 -0.0291 -1.30614 0.02303 0.37517 -9.72494 0.34202
IMU 25109.42567 -0.3631 -1.31379 -0.00677 0.33077 -9.7979 0.34055
ODOM 25109.426023 5.9063
IMU 25109.436981 -0.83152 -1.4301 0.2727 0.35874 -9.85678 0.32774
ODOM 25109.446346 5.90625
IMU 25109.468397 -0.52459 -1.47658 0.04193 0.39395 -9.84456 0.23463
ODOM 25109.468483 5.90625
IMU 25109.470782 -0.88891 -0.93864 -0.37857 -0.27776 -10.0081 0.37449
IMU 25109.482838 -1.57822 -0.83076 -0.47579 -0.45312 -10.1354 0.31776
ODOM 25109.48628 5.87505
IMU 25109.49413 -1.69902 -0.57182 -1.30784 -0.46183 -10.2046 0.11932
IMU 25109.504928 -2.27656 -0.03217 -1.48991 -0.20539 -10.2291 0.14895
ODOM 25109.5062 5.82815
IMU 25109.51531 -3.86762 -0.24584 -1.80939 -0.01242 -10.3589 0.34524
IMU 25109.525547 -5.11377 -0.02285 -1.74463 0.01809 -10.4189 0.52207
ODOM 25109.526796 5.7344
IMU 25109.53575 -4.92793 -0.38674 -2.45892 0.06269 -10.4983 0.42016
ODOM 25109.546082 5.51565
IMU 25109.547172 -3.73463 -0.13068 -3.07072 0.12851 -10.285 0.21585
IMU 25109.55784 -2.31182 -0.31996 -3.86082 0.09027 -10.0383 -0.05193
ODOM 25109.56598 5.4844
POSE 25109.447832 -0.393858 0.285967 7.15435 -0.0081551 -0.096823 -0.0132027 25109.561723
IMU 25109.568341 -1.819 -0.407 -3.65587 0.08939 -9.67027 -0.25869
IMU 25109.578859 -4.5121 -0.56116 -3.68741 0.13223 -9.62518 -0.02318
ODOM 25109.586365 5.5
IMU 25109.589124 -7.73698 -1.23846 -2.46687 0.29038 -9.92387 0.20108
IMU 25109.599358 -7.08057 -1.75628 -2.35699 0.69557 -9.84778 0.14054
ODOM 25109.605943 5.56255
IMU 25109.621741 0.0336 -1.40863 -3.77362 0.69293 -9.4643 0.38192
IMU 25109.623179 0.17815 -1.7517 -3.72922 0.52775 -9.29305 0.4008
ODOM 25109.626417 5.7344
IMU 25109.632827 -2.66706 -2.21621 -2.07924 0.46603 -9.11974 0.5654
IMU 25109.6436 -4.27292 -2.50711 -1.55468 0.43953 -9.00345 0.70399
ODOM 25109.646405 5.8125
IMU 25109.653643 -3.82925 -2.5834 -1.26168 0.46202 -9.32004 0.90986
IMU 25109.664359 -1.79687 -2.80438 -1.1136 0.61919 -9.36532 0.99221
ODOM 25109.665915 5.9063
IMU 25109.674718 0.31194 -2.55192 -1.12589 0.72472 -9.21842 1.07124
IMU 25109.685207 1.83223 -2.48978 -0.8949 0.64511 -8.9967 1.17647
ODOM 25109.686597 6.0313
POSE 25109.607221 -0.423052 0.328672 7.40341 -0.00546782 -0.096891 0.00625174 25109.680741
IMU 25109.697292 1.9009 -2.51688 -0.24691 0.6544 -8.841 1.20933
ODOM 25109.706594 6.09375
IMU 25109.707678 1.01029 -2.39542 0.67648 0.63944 -8.83386 1.24982
IMU 25109.718173 0.95335 -2.33551 1.46677 0.5607 -8.79161 1.3086
ODOM 25109.725981 6.1719
IMU 25109.728484 2.44591 -2.16259 1.63147 0.64726 -8.86946 1.27956
IMU 25109.739089 3.87418 -1.84318 1.94748 0.6943 -8.90037 1.18166
ODOM 25109.747315 6.26565
IMU 25109.749392 5.308 -1.66345 2.53089 0.75788 -8.75034 1.16434
IMU 25109.759611 5.79427 -1.39648 2.85534 0.76316 -8.77283 1.12669
ODOM 25109.7665 6.2344
IMU 25109.785357 1.90095 -1.01927 4.40293 -0.17526 -9.6692 1.05696
IMU 25109.785449 4.32897 -0.69993 3.83614 -0.64159 -9.76671 0.55083
ODOM 25109.786077 6.12505
IMU 25109.793654 7.25343 -0.19625 2.54754 -0.74937 -10.1082 0.39512
IMU 25109.807186 8.3443 -0.22378 2.29018 -0.52256 -10.0505 0.56608
ODOM 25109.80726 6.20315
IMU 25109.814135 6.7062 -0.45022 2.32047 -0.05438 -10.2165 0.49762
IMU 25109.824638 4.74117 -0.37095 2.84212 0.09282 -10.3327 0.44256
ODOM 25109.826556 5.9844
IMU 25109.835023 5.2531 -0.25058 1.88571 -0.01751 -10.4068 0.60726
ODOM 25109.846809 5.6563
IMU 25109.849976 7.30542 -0.26784 0.63324 -0.37302 -10.6515 0.44041
IMU 25109.863261 9.10019 -0.5317 -0.10922 -0.12128 -10.6938 0.23942
ODOM 25109.86604 5.39065
POSE 25109.767135 -0.460592 0.334238 7.64966 -0.0108272 -0.0991649 0.0124433 25109.881202
IMU 25109.874071 8.84437 -0.54611 -1.46476 0.15472 -10.371 0.27307
IMU 25109.884751 7.34878 -0.79655 -1.26183 0.44373 -10.1946 0.35884
ODOM 25109.886038 5.26565
IMU 25109.895222 5.72583 -1.05186 -1.69275 0.52295 -10.3629 0.30045
IMU 25109.905456 5.19248 -1.19484 -1.92598 0.50642 -10.5264 0.20333
ODOM 25109.906247 5.25
IMU 25109.915571 6.35141 -1.29033 -2.51787 0.73499 -10.3887 0.29194
IMU 25109.925976 7.56112 -1.1628 -3.48363 0.80335 -10.1642 0.20509
ODOM 25109.92608 5.2969
IMU 25109.943097 7.93981 -1.23227 -3.52977 0.82018 -9.88358 -0.0667
ODOM 25109.946219 5.45315
IMU 25109.947263 5.98454 -1.26049 -3.48764 0.81851 -9.66352 -0.28852
IMU 25109.957304 2.81673 -1.3394 -2.80532 0.78477 -9.72661 -0.44099
ODOM 25109.965732 5.70315
IMU 25109.972679 1.32108 -1.16728 -2.48201 0.79533 -9.7937 -0.46916
IMU 25109.982822 2.22463 -1.1173 -2.54624 0.82164 -9.71712 -0.50349
ODOM 25109.986421 5.9219
IMU 25109.992933 2.9428 -0.76676 -2.64092 0.86996 -9.42674 -0.50427
IMU 25110.003078 1.58783 -0.7478 -2.13089 0.89803 -9.33764 -0.62682
ODOM 25110.005765 6.0469
IMU 25110.01529 -0.66931 -0.65079 -1.16663 0.9305 -9.14135 -0.71768
IMU 25110.025491 -1.65177 -0.38101 -1.008 0.85353 -9.0412 -0.72443
ODOM 25110.026113 6.1719
POSE 25109.93122 -0.478736 0.365561 7.90231 -0.00640731 -0.10443 -0.00540885 25110.044287
IMU 25110.036103 -2.99584 -0.35917 -0.44237 0.76844 -9.26224 -0.62036
ODOM 25110.045763 6.2969
IMU 25110.046891 -3.97853 -0.41405 0.08109 0.71269 -9.15974 -0.4628
IMU 25110.057497 -3.90222 -0.29958 0.20364 0.71171 -9.09783 -0.32754
ODOM 25110.066577 6.39065
IMU 25110.067927 -4.602 -0.19876 0.76185 0.75357 -9.08834 -0.3518
IMU 25110.078182 -6.21186 -0.20548 1.37042 0.8325 -8.98663 -0.41087
ODOM 25110.08624 6.45315
IMU 25110.108901 -7.94716 0.03771 1.49247 0.35551 -9.18478 -0.64335
IMU 25110.109002 -9.73281 -0.45383 2.31665 0.10279 -9.62489 -0.60912
ODOM 25110.10903 6.4844
IMU 25110.110647 -9.47573 -0.1156 2.2038 0.0088 -9.44699 0.00313
IMU 25110.120952 -7.67833 -0.99979 1.17175 0.07687 -9.67956 0.24862
ODOM 25110.126264 6.2344
POSE 25110.088797 -0.525483 0.374537 8.17057 -0.00933525 -0.105548 -0.00499647 25110.134257
IMU 25110.132605 -9.98527 -1.39863 1.98097 0.69274 -9.99918 0.39571
IMU 25110.141504 -9.70514 -1.51237 2.10705 0.69068 -9.92133 0.60579
ODOM 25110.146723 6.0469
IMU 25110.151491 -6.75231 -1.51625 0.67628 0.31092 -9.95967 0.46515
IMU 25110.161613 -5.00492 -1.66886 0.51121 0.07042 -9.87077 0.50721
ODOM 25110.165722 5.95315
IMU 25110.172042 -5.09833 -1.85369 0.02214 0.02445 -9.62665 0.77215
IMU 25110.182316 -7.92317 -2.46332 0.84631 0.23815 -9.91458 0.88913
ODOM 25110.186376 5.8594
IMU 25110.192579 -9.84197 -2.7988 1.48872 0.601 -9.97796 1.06674
IMU 25110.202686 -7.69517 -2.39412 0.49119 0.73577 -10.2043 1.1486
ODOM 25110.206425 5.8594
IMU 25110.213119 -4.37086 -2.12243 -0.13366 0.6991 -10.3528 1.09461
IMU 25110.223277 -1.35615 -1.87844 -1.00603 0.54691 -10.0733 0.94976
ODOM 25110.228832 5.8438
IMU 25110.23391 -0.42004 -1.55034 -1.23263 0.35278 -9.95263 0.89294
IMU 25110.244488 -2.34497 -1.7662 -0.66994 0.41097 -9.85737 0.94292
ODOM 25110.246087 5.89065
IMU 25110.269928 -4.46839 -1.66146 -0.21073 0.46652 -10.0571 1.11926
IMU 25110.270006 -3.63583 -1.45653 -0.14263 0.47894 -10.2446 1.28992
ODOM 25110.270037 5.95315
IMU 25110.27788 -0.81248 -1.05852 -1.06186 0.5433 -10.3537 1.29393
ODOM 25110.286253 6.01565
IMU 25110.288091 2.37305 -0.60428 -1.73047 0.53919 -10.2004 1.14518
IMU 25110.298411 3.8741 -0.3837 -2.16784 0.41028 -9.96828 0.97226
ODOM 25110.306073 6.06255
IMU 25110.308513 2.22916 -0.45674 -1.36215 0.44471 -9.97327 0.8013
IMU 25110.318795 0.30524 -0.33542 -0.97811 0.54359 -9.84231 0.90165
ODOM 25110.326983 6.15625
POSE 25110.248845 -0.553198 0.389548 8.43834 -0.0114846 -0.108053 0.00136354 25110.322543
IMU 25110.329141 0.40312 -0.19809 -1.10302 0.4854 -10.0815 0.97637
IMU 25110.339557 1.34478 -0.1623 -1.04734 0.54388 -10.193 1.02595
ODOM 25110.346529 6.18755
IMU 25110.349656 3.58392 -0.20791 -1.81695 0.47092 -10.0758 0.88834
IMU 25110.359864 4.71354 0.08862 -2.03564 0.405 -10.0008 0.65684
ODOM 25110.370465 6.2344
IMU 25110.370622 3.42105 -0.20004 -1.62663 0.46701 -9.94461 0.44774
IMU 25110.380594 2.33376 -0.19511 -1.09334 0.46183 -9.76455 0.3741
ODOM 25110.386482 6.28125
IMU 25110.391997 2.39417 -0.44727 -1.08397 0.46975 -9.97747 0.30397
IMU 25110.402541 3.42161 -0.54414 -1.40491 0.47943 -9.84475 0.26563
ODOM 25110.406534 6.2969
IMU 25110.442885 3.0214 -0.75576 -1.23387 0.51679 -9.8516 0.07022
IMU 25110.442955 2.77395 -0.79393 -1.12344 0.56902 -9.74206 0.09712
ODOM 25110.442981 6.3125
ODOM 25110.447095 6.3125
IMU 25110.447453 2.38372 -0.89391 -1.04207 0.57303 -9.85287 0.04695
IMU 25110.458199 2.02187 -0.89302 -0.84987 0.55405 -9.75859 0.08509
ODOM 25110.469564 6.34375
IMU 25110.471012 2.92351 -0.94648 -1.2095 0.50046 -9.67624 0.14573
IMU 25110.483111 1.42087 -0.88993 -0.66816 0.51386 -9.6065 0.24304
ODOM 25110.486985 6.3594
IMU 25110.494833 1.26827 -0.90914 -0.74033 0.54907 -9.6424 0.23913
IMU 25110.506228 0.82188 -1.01615 -0.45643 0.632 -9.66646 0.21165
ODOM 25110.506425 6.375
IMU 25110.516262 0.61764 -0.79786 -0.46182 0.59699 -9.61501 0.27786
ODOM 25110.526267 6.4219
POSE 25110.411546 -0.568995 0.403322 8.71207 -0.0105961 -0.110025 -0.00347017 25110.528609
IMU 25110.532421 0.03736 -0.74704 -0.14822 0.60716 -9.5979 0.28871
IMU 25110.542581 -0.06947 -0.4867 -0.09763 0.5343 -9.5979 0.35336
ODOM 25110.545904 6.4844
IMU 25110.552687 -0.42973 -0.69552 0.12141 0.56354 -9.62968 0.34818
IMU 25110.562822 -0.77041 -0.43287 0.17915 0.53019 -9.57413 0.34857
ODOM 25110.565871 6.50005
IMU 25110.585987 -0.50046 -0.39824 0.20557 0.49371 -9.58763 0.35737
ODOM 25110.587489 6.5469
IMU 25110.592446 -1.22564 -0.31886 0.36751 0.4542 -9.65736 0.38319
IMU 25110.602554 -1.3124 -0.31847 0.57058 0.45958 -9.69423 0.45117
ODOM 25110.608986 6.5625
IMU 25110.61636 -1.3341 -0.38178 0.62394 0.56579 -9.78568 0.44745
ODOM 25110.627729 6.57815
IMU 25110.62868 -0.65261 -0.22408 0.51741 0.54867 -9.72426 0.48647
IMU 25110.638914 0.14175 -0.22575 0.20885 0.55963 -9.62206 0.52677
ODOM 25110.646114 6.5469
IMU 25110.655065 -1.19459 -0.36669 0.69014 0.37791 -9.65169 0.51826
IMU 25110.665254 -1.66605 -0.42852 0.63477 0.40578 -9.74157 0.44774
ODOM 25110.665838 6.4844
POSE 25110.570904 -0.58148 0.391133 8.98698 -0.0122965 -0.112282 -0.00442181 25110.659757
IMU 25110.675378 -1.58459 -0.39422 0.77123 0.4319 -9.82685 0.4721
IMU 25110.685528 -0.40375 -0.40846 0.39839 0.42134 -9.77296 0.51611
ODOM 25110.686318 6.50005
IMU 25110.696148 -0.18587 -0.56201 0.31818 0.52931 -9.84192 0.46642
IMU 25110.706086 -0.51091 -0.31867 0.44293 0.48285 -9.73854 0.46848
ODOM 25110.706216 6.56255
IMU 25110.71607 -0.51068 -0.46301 0.33678 0.4584 -9.75849 0.50007
ODOM 25110.725865 6.625
IMU 25110.726468 -0.64866 -0.43717 0.42656 0.43738 -9.79243 0.46398
IMU 25110.743525 -0.52082 -0.4251 0.38348 0.35786 -9.79341 0.47483
IMU 25110.747224 0.05335 -0.42931 0.2336 0.42652 -9.81287 0.4406
ODOM 25110.74732 6.6875
IMU 25110.757345 -0.22326 -0.31947 0.24066 0.53655 -9.76182 0.44745
ODOM 25110.766604 6.70315
IMU 25110.767484 -0.27116 -0.30534 0.25729 0.50192 -9.79996 0.49342
IMU 25110.777791 -0.39994 -0.43837 0.41029 0.57244 -9.76201 0.48207
ODOM 25110.786282 6.68755
POSE 25110.727054 -0.64926 0.427573 9.2846 -0.010581 -0.111042 -0.00325718 25110.785517
IMU 25110.788083 -0.05855 -0.22367 0.13221 0.56061 -9.71751 0.512
IMU 25110.798344 0.08857 -0.25843 0.13409 0.52237 -9.78597 0.55992
ODOM 25110.806455 6.71875
IMU 25110.810704 -0.33395 -0.32439 0.13248 0.57498 -9.70313 0.47161
IMU 25110.818909 -0.63992 -0.14323 0.21065 0.49224 -9.82519 0.44442
ODOM 25110.826337 6.71875
IMU 25110.829288 -0.51082 -0.29428 0.41358 0.52765 -9.75125 0.44119
IMU 25110.840171 0.02981 -0.16354 0.03766 0.59758 -9.67995 0.38544
ODOM 25110.846027 6.7188
IMU 25110.851981 0.40106 0.02015 -0.06673 0.5522 -9.74666 0.45547
IMU 25110.863394 -1.11014 -0.10342 0.2838 0.65606 -9.78284 0.42094
ODOM 25110.866327 6.7344
IMU 25110.873769 -0.97989 -0.30607 0.56177 0.59542 -9.91302 0.40422
IMU 25110.884875 0.01596 -0.14051 0.17974 0.63748 -9.76182 0.38339
ODOM 25110.886135 6.76565
IMU 25110.907448 0.75002 0.0002 -0.25654 0.52197 -9.82754 0.34583
ODOM 25110.907523 6.7969
IMU 25110.908996 0.40558 -0.26438 0.20989 0.56706 -9.67819 0.34476
IMU 25110.919247 -0.34261 -0.28365 -0.0379 0.61675 -9.61452 0.35493
ODOM 25110.92626 6.82815
IMU 25110.929396 -1.3025 -0.31985 0.51874 0.60393 -9.83791 0.37713
IMU 25110.939911 -1.22374 -0.39786 0.42536 0.74154 -9.73345 0.39199
ODOM 25110.946117 6.87505
IMU 25110.950042 -0.37546 -0.20711 -0.05568 0.65636 -9.93092 0.40402
IMU 25110.960182 0.40203 -0.32657 0.13386 0.59679 -9.84006 0.44657
ODOM 25110.966036 6.90625
IMU 25110.970632 1.05055 -0.26102 -0.39793 0.60599 -9.67174 0.38094
IMU 25110.981991 -0.57575 -0.55474 0.27466 0.64071 -9.63389 0.38466
ODOM 25110.98619 6.875
IMU 25110.992718 -0.72732 -0.26155 0.02455 0.70154 -9.76827 0.47073
IMU 25111.004994 -0.68649 -0.40181 0.39131 0.67318 -9.94666 0.51924
ODOM 25111.006484 6.875
POSE 25110.887483 -0.672199 0.44677 9.56908 -0.0108124 -0.112168 -0.00409243 25111.023435
IMU 25111.025951 1.07572 -0.03151 -0.51433 0.56824 -9.89688 0.57009
ODOM 25111.026512 6.95315
IMU 25111.036312 0.62148 -0.46193 0.14964 0.55337 -9.80993 0.50016
ODOM 25111.046326 6.9688
IMU 25111.067318 0.23891 -0.18594 -0.26224 0.64315 -9.69433 0.50593
IMU 25111.067432 -0.38076 -0.4356 0.30793 0.6321 -9.89101 0.48139
ODOM 25111.067463 7
IMU 25111.06825 0.02435 -0.29118 -0.01955 0.75846 -9.71418 0.50026
IMU 25111.078306 0.5929 -0.03918 -0.17804 0.65596 -9.92789 0.54691
ODOM 25111.086668 7.0938
IMU 25111.09211 0.68522 -0.2346 0.13741 0.6144 -9.75174 0.50691
IMU 25111.09868 1.49109 0.10343 -0.58296 0.58819 -9.64523 0.49146
ODOM 25111.105838 7.1563
IMU 25111.108804 0.59889 -0.18941 0.12092 0.52256 -9.90246 0.39923
IMU 25111.118954 -0.36701 -0.25708 0.34093 0.68971 -9.6558 0.41273
ODOM 25111.126161 7.20315
POSE 25111.047722 -0.722847 0.485805 9.88931 -0.00864151 -0.112 -0.00115178 25111.12138
IMU 25111.132167 0.64591 -0.18445 0.4152 0.66741 -9.84417 0.4896
IMU 25111.142321 1.87875 0.0083 -0.51587 0.66692 -9.73052 0.45371
ODOM 25111.146663 7.21875
IMU 25111.152429 1.60447 -0.05606 0.12148 0.61 -9.84348 0.4316
IMU 25111.162558 1.10338 -0.18084 0.12055 0.65997 -9.59399 0.48589
ODOM 25111.165823 7.21875
IMU 25111.177072 0.40596 -0.16609 0.16457 0.61332 -9.92094 0.41821
ODOM 25111.186401 7.2344
IMU 25111.187211 0.29807 -0.31716 0.75575 0.68482 -9.75849 0.47708
IMU 25111.197353 1.99056 -0.09322 -0.33994 0.67768 -9.73003 0.43033
ODOM 25111.205918 7.25
IMU 25111.207612 1.94393 -0.14941 0.28885 0.60266 -9.87067 0.38153
IMU 25111.228822 0.54671 -0.19106 0.25548 0.61704 -9.80886 0.36911
ODOM 25111.228932 7.2969
IMU 25111.236843 -0.41203 -0.45965 0.98859 0.67885 -9.71184 0.41723
IMU 25111.248432 0.35638 -0.2178 0.17002 0.66731 -9.79526 0.40578
ODOM 25111.248508 7.31255
IMU 25111.258101 0.77493 -0.39234 0.59474 0.61322 -9.96838 0.32793
ODOM 25111.266489 7.2188
IMU 25111.268282 1.82234 -0.26811 0.08039 0.6322 -9.60562 0.2494
IMU 25111.278422 1.25689 -0.09213 0.03163 0.5564 -9.87155 0.20705
ODOM 25111.286221 7.34375
POSE 25111.207702 -0.744263 0.486003 10.2283 -0.00838311 -0.114665 -0.00285874 25111.293629
IMU 25111.292487 -0.07847 -0.27699 0.25319 0.66418 -9.76534 0.2627
IMU 25111.302791 -0.49314 -0.16617 0.86729 0.65215 -9.87028 0.3295
ODOM 25111.30627 7.4219
IMU 25111.313122 0.66431 -0.20008 0.14578 0.66975 -9.71066 0.31502
IMU 25111.323429 0.90253 -0.02742 0.2599 0.60061 -9.94637 0.24187
ODOM 25111.326146 7.51565
IMU 25111.336315 0.58019 -0.20281 0.499 0.5652 -9.6377 0.2761
ODOM 25111.346042 7.5469
IMU 25111.347438 -0.15644 0.00692 0.28469 0.58535 -9.77883 0.29302
IMU 25111.358082 -0.85904 -0.20762 0.99637 0.59376 -9.80436 0.34153
ODOM 25111.366583 7.5625
IMU 25111.393746 0.01688 -0.02867 0.52022 0.72452 -9.86959 0.3515
IMU 25111.393825 0.47903 -0.2236 0.50696 0.74125 -9.54616 0.40129
ODOM 25111.39385 7.5938
POSE 25111.370495 -0.794791 0.514631 10.5618 -0.00450772 -0.114445 -0.00319382 25111.391978
IMU 25111.399511 0.19535 -0.12079 0.26146 0.69245 -9.71976 0.35111
ODOM 25111.406068 7.57815
IMU 25111.409993 -1.00096 -0.19517 1.14363 0.68433 -9.63624 0.36793
IMU 25111.421544 -0.74651 -0.30058 1.1002 0.74076 -9.82001 0.35248
ODOM 25111.425947 7.5938
IMU 25111.431939 0.39086 -0.25823 0.55104 0.84629 -9.62871 0.39865
IMU 25111.442088 0.33861 -0.24125 0.73448 0.85988 -9.71428 0.36979
ODOM 25111.445979 7.625
IMU 25111.452266 0.13881 -0.29463 1.06021 0.86389 -9.49726 0.4183
IMU 25111.462377 -0.73155 -0.24542 1.09363 0.8947 -9.62548 0.42417
ODOM 25111.465895 7.6563
IMU 25111.472479 -0.95996 -0.33468 1.49743 0.84032 -9.59477 0.39356
IMU 25111.482613 -0.09884 -0.26171 1.1001 0.92346 -9.589 0.44647
ODOM 25111.486123 7.65625
IMU 25111.492893 -0.0188 -0.26202 1.17666 0.84864 -9.6825 0.43953
IMU 25111.504435 -0.2928 -0.25671 1.33078 0.88414 -9.6068 0.4943
ODOM 25111.506251 7.64065
IMU 25111.514905 -0.55896 -0.26642 1.49324 0.86595 -9.70773 0.45214
IMU 25111.525536 -0.38477 -0.29703 1.51162 0.9125 -9.6912 0.42417
ODOM 25111.526262 7.8125
IMU 25111.555481 -0.25272 -0.16232 1.48254 0.96737 -9.7758 0.43288
IMU 25111.555515 0.20949 -0.18547 1.51093 0.98742 -9.66949 0.49166
ODOM 25111.55554 7.93755
IMU 25111.559368 0.28888 -0.03289 1.31739 0.97764 -9.73971 0.46124
ODOM 25111.56632 7.9688
IMU 25111.572628 -0.36892 -0.17927 1.74248 0.89275 -9.73502 0.43855
IMU 25111.580985 -0.76232 -0.13349 1.70302 0.89558 -9.80847 0.39865
ODOM 25111.586611 8.01565
IMU 25111.590015 -0.19671 -0.13532 1.75315 0.85607 -9.80778 0.34182
IMU 25111.600121 -0.11516 -0.07812 1.42698 0.93901 -9.90568 0.38564
ODOM 25111.606165 8.03125
IMU 25111.612169 -0.459 -0.00883 1.93437 0.96297 -9.95488 0.43601
IMU 25111.622578 0.02354 -0.09413 1.68442 0.98008 -10.025 0.38818
ODOM 25111.626296 8.0469
POSE 25111.533141 -0.853277 0.543586 10.9251 -0.00204903 -0.114277 -0.00172586 25111.647928
IMU 25111.633095 0.57483 -0.05994 1.44828 0.96179 -9.87096 0.38349
IMU 25111.645158 0.55191 -0.07603 1.42415 0.90487 -9.96495 0.3383
ODOM 25111.645848 8.0469
IMU 25111.65531 0.33414 -0.1113 1.44877 0.9213 -9.81776 0.3875
IMU 25111.665576 -0.49793 -0.08128 1.54147 0.95867 -10.0114 0.44227
ODOM 25111.666162 8.0313
IMU 25111.675964 -0.40725 -0.26563 1.79411 0.94155 -9.93004 0.46945
IMU 25111.686746 0.24502 -0.13428 1.25151 0.97832 -10.0479 0.40256
ODOM 25111.686834 7.9688
IMU 25111.714481 0.68197 -0.12235 1.42577 0.93294 -9.99537 0.4228
IMU 25111.714635 0.90896 -0.14572 0.96585 0.97617 -9.89052 0.45156
ODOM 25111.714667 8
IMU 25111.720127 0.62482 -0.13235 1.35013 0.93617 -9.88456 0.41146
IMU 25111.734982 0.25553 -0.26636 1.31469 0.9081 -9.8338 0.38847
ODOM 25111.735069 8.1719
IMU 25111.740664 -0.25118 -0.22579 1.52749 0.84159 -9.90901 0.37517
ODOM 25111.746544 8.32815
POSE 25111.691117 -0.880496 0.571811 11.291 -0.000826744 -0.116821 0.000105928 25111.750175
IMU 25111.750737 0.14025 -0.22224 1.10353 0.85079 -9.82861 0.44471
IMU 25111.760916 0.76184 -0.23706 0.91854 0.89128 -9.88495 0.39835
ODOM 25111.765829 8.43755
