IMU 23957.28935 0.0007243116395776468 -0.0008115781021773632 -0.00337337237825464 0.47493 -9.91634 -0.00284
ODOM 23957.289605 0
IMU 23957.316689 0.0007941248096574199 0.0004492477494633404 0.012574573661843547 0.26798 -9.82089 -0.06396
ODOM 23957.316783 0
IMU 23957.316864 0.0027417377219578925 0.00022863813201125718 -0.005641253208296072 0.14211 -9.57227 0.05692
IMU 23957.316897 -0.00733177912177778 -0.0020141099568014562 -0.0046429248761553155 0.26837 -9.8381 0.03149
ODOM 23957.31916 0
IMU 23957.319725 0.004099080281233882 -1.7802358370342164e-05 4.764748857944519e-05 0.39962 -10.0691 -0.05457
IMU 23957.33003 0.00249006124382031 0.0011386528040011007 0.012405102191474896 0.25126 -9.58704 0.04567
ODOM 23957.339194 0
IMU 23957.34022 -0.005603030497677396 -0.0010238101392198737 -0.004750960756853765 0.09976 -9.64103 0.03638
IMU 23957.350378 -0.00045413467136892456 -0.0008621926504851988 -0.010102489309318776 0.46163 -9.9317 -0.0268
ODOM 23957.358991 0
IMU 23957.360549 0.0007468263869283737 0.0007820820378186591 0.012609829312733831 0.31894 -9.87126 -0.06338
IMU 23957.370853 0.0018839083946026792 0.0009871582249279928 -0.0011091567396423964 0.09096 -9.55946 0.03355
ODOM 23957.379561 0
IMU 23957.381517 -0.006787061862230349 0.0002846632010002752 -0.00944345298376572 0.26955 -9.77296 0.03462
IMU 23957.391679 0.0015789993742792699 0.0008004079949645995 0.003929608810865233 0.44324 -10.0899 -0.06181
ODOM 23957.398889 0
IMU 23957.401973 0.005517334831404474 0.0014655529728996386 0.009324770594630105 0.23913 -9.62499 0.03306
IMU 23957.412139 -0.007818725983084198 -0.0011962486693169135 -0.006207088951792634 0.15609 -9.6466 0.04548
ODOM 23957.419871 0
IMU 23957.422393 -0.0005759586531581288 3.0543261909900765e-05 -0.009067858128736539 0.43072 -9.9804 -0.04069
IMU 23957.432561 0.0020427333565341634 0.001146855851485474 0.015339524262852962 0.27923 -9.75526 -0.04959
ODOM 23957.438955 0
IMU 23957.442736 -0.0007969173364606109 0.00034679692237127324 -0.003093596099159949 0.07658 -9.60112 0.00597
IMU 23957.465881 -0.0021240656996770993 -0.0010039133857471384 -0.013402034260214057 0.3073 -9.75565 0.03893
ODOM 23957.466776 0
IMU 23957.466866 -0.0017601645506362812 -0.0009649925434276648 0.003876201735754207 0.44099 -10.0291 -0.07658
IMU 23957.473449 0.007463027881527752 -0.0005386086071654501 0.006975731954370936 0.23571 -9.7357 0.00773
ODOM 23957.480976 0
IMU 23957.483654 -0.0074204418477790916 -0.0005602506898901797 0.0010688396339213276 0.11658 -9.58196 0.05086
IMU 23957.494028 0.0013760175822723293 6.021385919380437e-05 -0.009611004591957174 0.35522 -10.019 -0.04567
ODOM 23957.499121 0
IMU 23957.504651 0.0014789920081399947 0.0004729842272904633 0.010738312755820312 0.38309 -9.76847 -0.04039
IMU 23957.514951 -0.0004625122517784973 -0.0001272345024703866 0.002065597169735289 0.11678 -9.58499 -0.01056
ODOM 23957.519268 0
IMU 23957.525055 -0.0032176890089767457 -0.0005113814708343385 -0.010727317181532747 0.30916 -9.73472 0.0222
IMU 23957.535407 -0.0009573130947188899 0.00034627332359567496 0.006583032872672212 0.41204 -10.0197 -0.07306
ODOM 23957.53934 0
IMU 23957.545414 0.006421938982713135 -3.787364476827695e-05 0.008049109444347448 0.18671 -9.758 0.00225
IMU 23957.555572 -0.006481978308981741 -0.0018182840147276925 -0.005213123942781863 0.14807 -9.57628 0.08382
ODOM 23957.558759 0
IMU 23957.566111 -0.0012616985162667007 -0.0004516912104161325 -0.00809780413047809 0.41693 -10.071 -0.03668
IMU 23957.576166 -0.005031784233499652 0.0004822344723260332 -0.0014140657599658057 0.06132 -9.54724 0.00724
ODOM 23957.579584 0
IMU 23957.586342 -7.801621756414653e-05 -0.0004098033083682686 -0.011345338269663939 0.28011 -9.85453 0.01897
IMU 23957.596582 -0.0022165681500327986 0.0003167772592369708 0.006814114465636261 0.43659 -9.88759 -0.04831
ODOM 23957.600316 0
IMU 23957.60676 0.0048952994859936955 0.00036756634047000576 0.0020788616720504457 0.18866 -9.76514 -0.01017
IMU 23957.633292 -0.00305327899343888 0.0008717919613711676 0.0005866051615952941 0.2047 -9.57041 0.10837
ODOM 23957.633381 0
IMU 23957.633445 -0.004733681997259021 -0.0005927138139772743 -0.007385535262739205 0.33312 -10.0436 -0.0445
IMU 23957.6377 0.007970744160932903 0.0006005677956112489 0.01001522284671906 0.39532 -9.86607 -0.02025
ODOM 23957.639415 0
IMU 23957.649934 -0.00496476359022307 0.0002675589743307307 0.00585732496969297 0.08215 -9.50058 0.02406
IMU 23957.658414 -0.002204699911119237 0.0002319542575900464 -0.014996916130686476 0.25771 -9.82294 0.00225
ODOM 23957.659529 0
IMU 23957.668625 0.00016283921921107094 0.0009142034621946298 0.008840441727201678 0.5209 -9.88925 -0.03501
IMU 23957.678908 0.0032799972632729436 0.00044488442633335457 0.006359979794267337 0.17135 -9.72025 -0.02866
ODOM 23957.679294 0
IMU 23957.689275 -0.002509259865592248 -0.000595855406630864 -0.007563733379367826 0.18778 -9.60562 0.07902
ODOM 23957.699125 0
IMU 23957.699503 -0.0052625167606133024 0.0013447761886616308 -0.0024089034336025736 0.35855 -10.0566 -0.02054
IMU 23957.709672 0.006792123317061133 -0.0002611012560983517 0.007509977238406401 0.31629 -9.83849 -0.0311
ODOM 23957.719669 0
IMU 23957.720067 -0.003887895441742569 0.0004721115626644662 0.003957883144747541 0.10817 -9.4909 0.04147
IMU 23957.730525 -0.0026782077371852986 -0.0008583529261308113 -0.011131011837519036 0.2582 -9.86177 -0.00606
ODOM 23957.740237 0
IMU 23957.740902 0.0005696754678509492 0.0010091493735031214 0.0022657864349390384 0.49919 -9.88153 -0.03922
IMU 23957.751287 0.002290395577392159 -0.0006257005368399671 0.006100100268645381 0.20147 -9.77257 -0.04607
ODOM 23957.758738 0
IMU 23957.761329 -0.0007754497866610806 0.0008127998326537593 -0.00202842165666781 0.13898 -9.56875 0.07482
IMU 23957.78509 -0.007297396135513491 0.0001293288975727798 -0.006304652856979116 0.31757 -9.95742 -0.02582
ODOM 23957.785182 0
IMU 23957.785246 0.008456818357613324 0.00035936329298563247 0.006104812657625766 0.39542 -9.97962 -0.04499
IMU 23957.792089 -0.0002436479635784084 0.00040177479380909466 0.008603949613556447 0.15433 -9.44885 0.04215
ODOM 23957.799058 0
IMU 23957.802439 -0.005251695719250937 -0.001666091303953787 -0.01329015865516122 0.18475 -9.84358 -0.01203
IMU 23957.812694 0.0018315485170428496 -0.0003913028182971287 0.00025394540616517495 0.51572 -9.96241 -0.04352
ODOM 23957.819396 0
IMU 23957.822716 0.0010081021759519248 0.0010944959739256441 0.012541237873130454 0.1693 -9.71125 -0.05135
IMU 23957.832838 -0.0009719738604356422 -0.0012180652849668426 -0.008203745616074147 0.14807 -9.59428 0.04851
ODOM 23957.839059 0
IMU 23957.843025 -0.006237806746627734 -0.0002637192499763432 -0.009154077393785058 0.4007 -9.95742 -0.00186
IMU 23957.853281 0.004167846253762459 0.0011920598791121271 0.009087580349284075 0.38309 -10.0116 -0.06651
ODOM 23957.858843 0
IMU 23957.864155 0.003877248933305403 0.0006585127267774606 0.006394188247606426 0.13614 -9.48288 0.03971
IMU 23957.87399 -0.007862010148533657 -0.0014803882715415904 -0.009412735188930618 0.12489 -9.74969 0.01291
ODOM 23957.879146 0
IMU 23957.884203 0.002909114797224148 0.0018289305231648579 -0.0033176963751160213 0.49567 -10.0184 -0.04421
IMU 23957.894524 0.0017481217787975204 0.0008405505677604691 0.0144357927761703 0.31688 -9.72915 -0.03805
ODOM 23957.899428 0
IMU 23957.904673 0.0002921681167838508 -0.0007920304145550267 -0.003763977064850971 0.10132 -9.56934 0.03717
IMU 23957.914943 -0.005368981844984956 0.0005263913024014898 -0.010947926798984832 0.34026 -9.84553 0.03218
ODOM 23957.918934 0
IMU 23957.925115 0.0012189379495928397 1.3788101090755203e-05 0.00856293437613458 0.38163 -10.0696 -0.06964
IMU 23957.943838 0.006026796440061619 -0.0014840534629707784 0.006521248217151613 0.16186 -9.5311 0.04147
ODOM 23957.943942 0
IMU 23957.945628 -0.008603949613556447 -0.0006454227573875031 -0.006631378492952455 0.16314 -9.66313 0.03883
IMU 23957.956144 0.003804992302272838 0.0007363544114164076 0.01350273975805413 0.29703 -9.70587 -0.01594
ODOM 23957.959103 0
IMU 23957.966358 -0.0016484634785086444 -0.0002129301687433082 -0.0034191000046568916 0.08372 -9.62479 0.03462
IMU 23957.976634 -0.003072128549360419 -0.000703018622703316 -0.009435075403356146 0.35053 -9.87272 0.03159
ODOM 23957.979876 0
IMU 23957.986709 -0.00021258110289290932 -3.17649923862968e-05 0.00680870394495508 0.35757 -9.9939 -0.07668
IMU 23957.997174 0.0046607272345256575 0.002182708762544109 0.0075630352476670284 0.17477 -9.58753 0.02465
ODOM 23957.999062 0
IMU 23958.007375 -0.0067315603920169295 -0.0020640263734084943 -0.0040413098829928705 0.18133 -9.62978 0.05986
IMU 23958.017685 -0.0024418901564652665 0.00040701078156507765 -0.0071982614340002134 0.45087 -10.0634 -0.05516
ODOM 23958.019359 0
IMU 23958.027894 0.006136577650012063 0.00140656084418223 0.013454394137773888 0.31972 -9.77326 -0.01418
IMU 23958.038113 -0.003339338457840751 0.000688532389911763 0.0025881487477823913 0.0668 -9.55232 0.03296
ODOM 23958.038888 0
IMU 23958.04863 -0.003208787829791575 -0.0014360569085409346 -0.014803882715415903 0.27698 -9.83008 0.02377
IMU 23958.058786 -0.0017634806762150707 0.0014515903388836837 0.009177115739911383 0.46222 -9.97287 -0.06034
ODOM 23958.059677 0
IMU 23958.06895 0.004620759194654987 7.766715171374766e-05 0.007790626182127089 0.18534 -9.68524 -0.00949
IMU 23958.079345 -0.005661673560544406 0.0012679817015738804 -0.004142189913758142 0.17145 -9.55232 0.06592
ODOM 23958.079459 0
IMU 23958.112424 -0.002894803097357795 0.0006529276731710786 -0.004496317218987792 0.39708 -10.0871 -0.06064
ODOM 23958.113057 0
IMU 23958.113136 0.008258898020437168 0.0001694714703686494 0.012543157735307649 0.3339 -9.78363 -0.00528
IMU 23958.113186 -0.004621457326355786 -0.0004064871827894794 -0.002410299697004169 0.09575 -9.53667 0.02641
ODOM 23958.119352 0
IMU 23958.120013 -0.00045535640184532055 0.0005522221753310059 -0.014871950556243681 0.35434 -9.9007 0.00998
IMU 23958.130275 -0.00046111598837690187 0.001085594794740473 0.010312277885408496 0.40305 -9.9095 -0.04303
ODOM 23958.139006 0
IMU 23958.140443 0.0037294195456614833 -0.0007305948248848263 0.0017533577665535033 0.09565 -9.7093 -0.02514
IMU 23958.150602 -0.0025853562209792007 0.00022689280275926284 -0.004688128903781969 0.18367 -9.58665 0.06885
ODOM 23958.158645 0
IMU 23958.160822 -0.0037016688105547734 -0.001235169511636387 -0.004462632364424301 0.39659 -10.0005 -0.06171
IMU 23958.171046 0.0059311523970523305 0.0006862634618841703 0.00601719712917565 0.37478 -9.83683 -0.03042
ODOM 23958.179579 0
IMU 23958.181301 -0.003139149192637001 2.4434609527920612e-05 0.005287300435991622 0.13575 -9.53726 0.04499
IMU 23958.191469 -0.002808234766458876 -0.00152053084433746 -0.013565920676976326 0.22289 -9.90461 0.00205
ODOM 23958.20011 0
IMU 23958.201975 0.0014615387156200516 0.00038973202197033376 0.006263812152482449 0.44716 -9.92847 -0.03345
IMU 23958.212013 0.0012730431564046641 0.0014793410739903938 0.00931045889476375 0.1381 -9.68592 -0.02924
ODOM 23958.221016 0
IMU 23958.222401 -0.0019257962966505431 0.0008297295263981042 -0.007856076029076876 0.19062 -9.57687 0.07726
IMU 23958.232504 -0.005309815183342349 0.0005155702610391249 -0.0032829643230013338 0.45723 -9.99097 -0.03951
ODOM 23958.239096 0
IMU 23958.242711 0.006602056961518951 0.002294060768821347 0.01118197545167727 0.31561 -9.88094 -0.0532
IMU 23958.266497 -0.0031655036643421157 -0.0006728244266438141 0.0016215854080279318 0.11854 -9.49716 0.06054
ODOM 23958.266602 0
IMU 23958.266674 -0.003980746957948667 0.0003464478565208744 -0.011860559464852666 0.24646 -9.95762 0.01516
IMU 23958.273334 0.0026427775533698137 -8.552113334772214e-05 0.006496115475922894 0.47875 -9.9228 -0.0268
ODOM 23958.27921 0
IMU 23958.283576 -8.639379797371933e-05 0.0013444271228112321 0.007641575064006773 0.14866 -9.67907 -0.02083
IMU 23958.29395 -0.00041224676932106064 -0.000873188224772763 -0.006129945398854484 0.16059 -9.61716 0.06817
ODOM 23958.299509 0
IMU 23958.304121 -0.0056199601914217415 0.0004511676116405342 -0.0070504320463562935 0.41488 -9.92886 -0.02269
IMU 23958.314416 0.004525115151645698 0.0014784684093643965 0.009018116245054702 0.35933 -9.92808 -0.06347
ODOM 23958.319113 0
IMU 23958.324581 0.0014301227890841535 0.0015161675212074742 0.006444802795914261 0.10827 -9.42752 0.05829
IMU 23958.334836 -0.0076876517562594225 0.0009379399400217528 -0.01220735638722394 0.21028 -9.88162 0.0177
ODOM 23958.339061 0
IMU 23958.345263 0.004781853084614064 0.0010257300013970674 0.0021830578283945075 0.52647 -10.0283 -0.02817
IMU 23958.35547 0.0022504275375214884 0.0014960962348095394 0.013373410860481352 0.17781 -9.62919 -0.01418
ODOM 23958.358707 0
IMU 23958.365913 -0.0014864969239235704 -0.0008925613794699001 -0.010971314210961555 0.09702 -9.60768 0.04665
IMU 23958.376093 0.0012498302773531393 0.00020367992370773827 0.010201274944981655 0.34671 -9.94637 -0.08675
ODOM 23958.379246 0
IMU 23958.386339 0.0022462387473167022 -0.0003234095103945493 0.005931326929977529 0.1825 -9.451 0.04753
IMU 23958.39656 -0.007822914773288983 0.0010512118084761847 -0.00703629487941514 0.20118 -9.8114 0.01653
ODOM 23958.399121 0
IMU 23958.427352 0.002925869958043294 -0.0014100515026862189 -0.004815887005027953 0.48158 -10.0942 -0.04137
IMU 23958.427613 0.003651403328097337 0.0004965461721923867 0.014970212593130963 0.20304 -9.67927 -0.02142
ODOM 23958.427655 0
IMU 23958.427719 -0.0029180159764093196 -0.0007524114405347555 -0.002684490922492478 0.03628 -9.5934 0.02504
IMU 23958.437546 -0.002613979620711907 -5.235987755982989e-05 -0.013657899528556427 0.42681 -9.90637 0.01369
ODOM 23958.439512 0
IMU 23958.450673 0.0010204940136410844 -0.0006721262949430164 0.011872951302541826 0.42026 -9.99087 -0.07961
IMU 23958.459268 0.005437398751663134 0.0016732471538869636 0.005684013774969934 0.17301 -9.47819 0.0266
ODOM 23958.459379 0
IMU 23958.468516 -0.008096931465852093 0.00017174039839624203 -0.005734977389128168 0.13135 -9.72563 0.031
IMU 23958.478608 0.0003963642731279123 -0.00017558012275062954 -0.008642172324175123 0.43004 -10.1322 -0.06719
ODOM 23958.479245 0
IMU 23958.488973 0.00721466752896896 0.0004436626958569586 0.01211764646367143 0.29664 -9.71115 -0.01301
ODOM 23958.498999 0
IMU 23958.499651 -0.0018090337696921226 0.00024033183799961917 -0.0002207841503772827 0.08421 -9.55183 0.03413
IMU 23958.509971 -0.0022003365879892513 -0.0008037241205433888 -0.01410330755366538 0.38094 -9.86774 0.02866
ODOM 23958.519154 0
IMU 23958.519972 -0.002769313924139403 0.000714712328691678 0.010918081668775729 0.4319 -10.0478 -0.07012
IMU 23958.530184 0.006883578569865635 7.661995416255106e-05 0.008077732844080155 0.15296 -9.57491 0.00068
IMU 23958.541344 -0.006829473363053811 -0.00029251718263424963 -0.006576749687365033 0.14964 -9.60807 0.0402
ODOM 23958.542085 0
IMU 23958.551488 -0.0017360790069587597 -0.00029740410453983374 -0.01079416329188413 0.42222 -10.1283 -0.06484
ODOM 23958.560003 0
IMU 23958.561777 0.007634942812849195 0.0010161306905110987 0.013617931488685757 0.35297 -9.71908 0.00372
IMU 23958.592816 -0.0038851029149393774 0.0005394812717914473 0.00472146469249506 0.04235 -9.55193 0.0269
ODOM 23958.593092 0
IMU 23958.59317 0.0002457423586808016 -0.00157289072189729 -0.014507002209651667 0.30211 -9.85209 0.031
IMU 23958.593207 -0.002585007155128801 0.0007674212721019068 0.007553086870930661 0.44227 -9.96691 -0.049
ODOM 23958.598778 0
IMU 23958.602636 0.006286850498608774 -0.00034138640169009086 0.006721961081130961 0.19913 -9.68944 -0.00949
IMU 23958.61284 -0.0025855307539044 -0.0005120796025351363 -0.0004511676116405342 0.13497 -9.48709 0.08039
ODOM 23958.619377 0
IMU 23958.623096 -0.0054510123198286894 -0.0004380776422505767 -0.01218588883742441 0.38094 -10.1062 -0.06778
IMU 23958.633231 0.008851088235638844 0.0010313150550034494 0.010711609218264799 0.38368 -9.88182 -0.02152
ODOM 23958.639014 0
IMU 23958.643494 -0.0020238838006126246 0.0012138764947620562 0.010716147074319985 0.03736 -9.45882 0.05516
IMU 23958.653802 -0.0035915385347539313 -0.0014695672301792255 -0.01779555158625938 0.22935 -9.83507 0.02856
ODOM 23958.658992 0
IMU 23958.663969 0.0003766420525803763 -0.00016859880574265223 0.00489687028232049 0.53019 -9.99243 -0.031
IMU 23958.67417 0.003271270617012972 0.0014624113802460489 0.01033252370473163 0.1957 -9.71291 -0.02748
ODOM 23958.680216 0
IMU 23958.684384 -0.001737475270360355 0.0003614576880880256 -0.005458342702687066 0.17536 -9.54264 0.07433
IMU 23958.695084 -0.006189984725123089 0.0004965461721923867 -0.00644218480203627 0.34329 -10.0212 -0.0444
ODOM 23958.699853 0
IMU 23958.705131 0.0066732663950003195 -0.0009992009967667538 0.006680247712008296 0.33722 -9.97053 -0.04323
IMU 23958.715308 -0.0026193901413930896 -0.0005057964172279567 0.008156098127494701 0.11374 -9.49726 0.04567
ODOM 23958.719255 0
IMU 23958.740253 -0.003516489376918175 -0.0006527531402458793 -0.011325965114966802 0.20724 -9.81658 0.02259
IMU 23958.740374 2.844886680750757e-05 -0.000335801348083709 -0.00033719761148530447 0.54809 -9.94588 -0.02435
ODOM 23958.740431 0
IMU 23958.746575 -0.00023893557459802372 -0.0003773401842811741 -0.0022013837855404477 0.11374 -9.5176 0.04861
IMU 23958.756561 -0.006388428661074845 -0.0008349655141540873 -0.01014821693572103 0.29165 -9.90138 -0.02827
ODOM 23958.759002 0
IMU 23958.766758 0.0032578315817726154 0.00027244589623631483 0.006695606609425847 0.4096 -10.0396 -0.08147
IMU 23958.77699 0.004006926896728582 -8.552113334772215e-06 0.009090896474862865 0.1738 -9.50635 0.03912
ODOM 23958.779517 0
IMU 23958.787141 -0.007181680806106268 -0.00015812683023068625 -0.011074463169754419 0.18788 -9.75976 0.0268
IMU 23958.797358 0.0019430750562452871 0.000756251164889143 -0.0021027726828027685 0.49498 -9.99459 -0.03345
ODOM 23958.799121 0
IMU 23958.810339 0.0027419122548830916 0.00047438049069205876 0.012439136111888785 0.23698 -9.73746 -0.04831
ODOM 23958.819892 0
IMU 23958.820528 0.002221978670713981 0.00016859880574265223 -0.005046794065066803 0.1115 -9.54694 0.03961
IMU 23958.830699 -0.005579817618625871 -0.0004707152992628707 -0.011490898729280266 0.3782 -9.83429 0.00235
ODOM 23958.839233 0
IMU 23958.840809 0.002277131075077002 -0.00016458454846306526 0.007603003287537698 0.37713 -10.0339 -0.08206
IMU 23958.851083 0.004154581751447302 0.00020123646275494621 0.005485569839018178 0.14397 -9.5089 0.0444
ODOM 23958.858902 0
IMU 23958.861269 -0.008039161067611081 -0.0005982988675836561 -0.005735151922053367 0.11639 -9.76905 0.03081
IMU 23958.871497 0.003319790770218414 0.00016702800941585734 -0.0029454176456656304 0.4765 -10.0376 -0.0222
ODOM 23958.879289 0
IMU 23958.881779 0.0019556414268596463 0.0016507324065362368 0.014271382760632433 0.29116 -9.70724 -0.01956
IMU 23958.903266 -0.00016388641676226757 -0.0007052875507309085 -0.002864957967148692 0.09741 -9.57726 0.03765
ODOM 23958.903407 0
IMU 23958.903509 -0.006073047665239469 0.0004836307357276287 -0.01158567010766356 0.37038 -9.83272 0.01379
IMU 23958.912508 -0.0005890486225480862 -0.0004839798015780276 0.00938149379531992 0.35287 -10.0221 -0.0845
ODOM 23958.919097 0
IMU 23958.92402 0.0043826962846829605 -0.0010536552694289767 0.004685336376978778 0.13927 -9.57716 0.03003
IMU 23958.933485 -0.00696822703858736 0.0005695009349257497 -0.003672521812046468 0.18416 -9.69179 0.07707
ODOM 23958.939875 0
IMU 23958.944106 0.0007874925584998415 -0.0008098327729253688 -0.004842066943807869 0.48501 -10.0212 -0.03775
IMU 23958.954063 0.00448130738742064 0.0012981758976333823 0.011959170567590344 0.34143 -9.77805 -0.0088
ODOM 23958.959356 0
IMU 23958.964064 -0.0008588765249064095 -0.0006646213791594407 -0.0013329079497480694 0.1111 -9.59888 0.03589
IMU 23958.974362 -0.0037632789331501736 -0.000482932604026831 -0.013600129130315414 0.334 -9.83262 0.00528
ODOM 23958.979878 0
IMU 23958.984549 0.0017427112581163379 -3.595378259108319e-05 0.006262939487856452 0.40187 -9.99801 -0.08802
IMU 23958.994755 0.005654692243536428 -0.0004523893421169302 0.004815014340401957 0.17585 -9.62509 0.01624
ODOM 23958.99969 0
IMU 23959.004936 -0.006161535858315582 -0.0019285888234537342 -0.009919404270784572 0.2047 -9.65296 0.07296
IMU 23959.015271 0.00011152653920243765 -0.0002905973204570559 -0.004671548275888023 0.51376 -10.0018 -0.01966
ODOM 23959.019392 0
IMU 23959.025414 0.005547878093314375 0.00024015730507441973 0.007184822398759857 0.31757 -9.71301 -0.0135
IMU 23959.036004 -0.003089058243104764 0.00011693705988362008 -0.005719793024635817 0.20059 -9.76719 0.03873
ODOM 23959.03948 0
IMU 23959.045918 0.003119426972089465 -0.0007126179335892847 -0.0012091641057816714 0.36128 -9.7404 0.01624
IMU 23959.071083 0.0034341098362240426 0.0007730063257082886 -0.0034477234043895984 0.334 -9.96877 0.0177
ODOM 23959.071182 0
IMU 23959.071255 -0.00020106192982974677 0.001837831702350029 0.005941973438414695 0.22553 -9.67379 0.07472
IMU 23959.076758 -0.0022341959754779415 0.0022230258682651776 -0.009028588220566666 0.32138 -9.73981 -0.0446
ODOM 23959.080426 0
IMU 23959.089803 0.0025490533725377185 0.002646791810649401 -0.0022996458224277283 0.38329 -9.82284 -0.01721
IMU 23959.097245 -0.0002926917155594491 0.0032812189937493396 0.0032799972632729436 0.23629 -9.82832 0.02611
ODOM 23959.099394 0
IMU 23959.107487 0.002792352270265728 0.0029373891311064567 -0.0066142742662829105 0.33527 -9.70646 0.01095
IMU 23959.117715 -0.0021645573383233677 0.00294245058593724 -0.0020476202784397474 0.38388 -9.68543 -0.07316
ODOM 23959.119697 0
IMU 23959.128252 0.0027822293606041605 0.0021940534026820713 -0.005441762074793121 0.26016 -9.95488 -0.0355
IMU 23959.138379 0.0028255135260536204 0.0032766811376941543 0.002359859681621533 0.23874 -9.7445 0.07824
ODOM 23959.139232 0
IMU 23959.148423 -0.0031045916734475138 0.0022120302939776133 -0.0034838517199058815 0.2625 -9.77737 -0.031
IMU 23959.158686 0.007308566242726255 0.003275633940142958 -0.009033475142472252 0.36823 -9.75331 -0.00156
ODOM 23959.159262 0
IMU 23959.170252 -0.0021682225297525557 0.002367190064479909 0.001083151333787681 0.28324 -9.81854 0.05545
ODOM 23959.179533 0
IMU 23959.179911 0.004561941598862779 0.004042182547618867 -0.004116359040828626 0.28138 -9.79116 0.01731
IMU 23959.19055 -0.0006178465552059926 0.003354697355258301 -0.0016264723299335155 0.30808 -9.6022 -0.0624
ODOM 23959.198918 0
IMU 23959.20063 0.0012379620384395781 0.0021088813351847484 -0.0046300094396905574 0.22055 -9.94764 -0.05105
IMU 23959.22926 0.0039978511846182115 0.003450690464117989 0.00029181905093345187 0.27267 -9.76084 0.07766
ODOM 23959.229346 0
IMU 23959.229411 -0.0034641294993583453 0.0033363713981123602 -0.0016788322074933455 0.29556 -9.73697 -0.01056
IMU 23959.231279 0.005383119011926111 0.0038774234662306024 -0.006754424205218055 0.33175 -9.79507 -0.01897
ODOM 23959.239474 0
IMU 23959.241533 -0.001664520507626992 0.0040591122413632125 -0.00211760798144472 0.2848 -9.83399 0.07462
IMU 23959.251853 0.002230007185273155 0.004543266575866439 -0.003605850234620285 0.27561 -9.86598 0.04166
ODOM 23959.25913 0
IMU 23959.262101 0.001466949236301234 0.004492128428783005 -0.0039023816745341216 0.35424 -9.56494 -0.01506
IMU 23959.272184 -0.00216996785900455 0.005425530512749573 -0.010183821652461712 0.33439 -9.87145 -0.03765
ODOM 23959.2793 0
IMU 23959.282568 0.006095213346739797 0.004828802441492712 -0.004950975489132314 0.34388 -9.82685 0.08
IMU 23959.292599 -0.0036021850431910965 0.006018593392577246 -0.006539574174297554 0.34016 -9.66753 0.01878
ODOM 23959.298974 0
IMU 23959.30332 0.003821572930166784 0.008145102553207138 -0.009842958849547221 0.35004 -9.87272 -0.02386
IMU 23959.313351 0.002786243617883748 0.007290589351430713 -0.0014013248564262472 0.3249 -9.74793 0.10406
ODOM 23959.319265 0
IMU 23959.323701 -0.00126815623449908 0.008761901910861934 -0.008679522370167801 0.25468 -9.86832 0.05115
IMU 23959.333994 0.004851491721768637 0.00918409705691936 -0.009282010027956243 0.47914 -9.65149 0.02729
ODOM 23959.339501 0
IMU 23959.34415 -0.0025167647813758233 0.007913148295617092 -0.006512696103816841 0.31277 -9.82372 -0.00714
IMU 23959.354315 0.007139269305282805 0.009343969216402043 -0.008148069612935528 0.31463 -9.89463 0.09663
ODOM 23959.358793 0
IMU 23959.364539 -0.0016524777357882312 0.01050234424095068 -0.002009572100746271 0.2895 -9.6069 0.05164
IMU 23959.38393 0.0015091862041994968 0.0093567101199416 -0.012733049557924632 0.26593 -9.88065 -0.03775
ODOM 23959.384072 0
IMU 23959.384953 0.0048876200372849204 0.010708293092686009 -0.0058412679405746215 0.38349 -9.74499 0.1203
IMU 23959.395181 -0.0011843804304033521 0.009076584774996512 -0.0030778881358920003 0.25008 -9.83028 0.05839
ODOM 23959.399173 0
IMU 23959.405498 0.006111095842932945 0.009418145709611801 -0.009155473657186655 0.35982 -9.70225 -0.00988
IMU 23959.415921 -0.001910786465083392 0.011099421378057939 -0.002906147737495758 0.27101 -9.78421 -0.00587
ODOM 23959.420115 0
IMU 23959.42615 0.001707979206001651 0.009481501161459195 -0.006634694618531244 0.33253 -9.53804 0.06074
IMU 23959.436252 -0.003338291260289554 0.009658128481761022 -0.005840918874724223 0.29057 -9.92769 -0.08616
ODOM 23959.439122 0
IMU 23959.446484 0.010365684960519523 0.008292233809150258 -0.004965461721923867 0.38515 -9.73727 0.0844
IMU 23959.457176 -0.008496960930409194 0.010749133797182677 0.003687880709464018 0.15267 -9.74294 0.0268
ODOM 23959.459341 0
IMU 23959.467092 0.007808777606347829 0.007698996396397387 -0.009922720396363362 0.2717 -9.80573 -0.05262
IMU 23959.477333 -0.002466150233067988 0.007804763349068243 -0.0009159487914466241 0.23551 -9.70881 -0.00049
ODOM 23959.479062 0
IMU 23959.487579 0.004144284308860535 0.0069385564413034576 -0.004442386545101167 0.24578 -9.93199 0.00088
IMU 23959.497857 0.0037533305564138057 0.006759834725899238 -0.00307177948351002 0.38466 -9.60826 0.02308
ODOM 23959.499325 0
IMU 23959.507999 -0.00270246781378802 0.00793199785153863 -0.0017449801861439307 0.25996 -9.87967 -0.0712
IMU 23959.518224 0.008607265739135235 0.007343298294840942 -0.004293335426980851 0.3114 -9.86304 0.07277
ODOM 23959.518978 0
IMU 23959.54913 -0.004658632839423265 0.008181754467499018 0.007807730408796633 0.17536 -9.6514 0.04665
ODOM 23959.549259 0
IMU 23959.549345 0.0028310985796600016 0.0066142742662829105 -0.01040041701263421 0.24187 -9.80612 -0.07413
IMU 23959.549947 0.00035849062835963526 0.008625591696281175 -0.0026244515962238735 0.36363 -9.76064 0.04254
ODOM 23959.559817 0
IMU 23959.560078 -0.0017903587466957833 0.005904623392422016 0.0031196015050146647 0.2402 -9.85805 -0.00724
IMU 23959.570738 0.0026740189469805125 0.006772052030663198 -0.0076040504850888955 0.30211 -9.67105 -0.02181
ODOM 23959.579639 0
IMU 23959.580818 -0.003120474169640662 0.006285977833982777 -0.0015442673221645828 0.29752 -9.85639 -0.03227
IMU 23959.591176 0.0031569515510073433 0.006935065782799468 -0.001599594259452803 0.25008 -9.87145 0.04998
ODOM 23959.598971 0
IMU 23959.601098 -0.0032958797594660923 0.007501250592146429 0.004164704661108869 0.25038 -9.59604 0.05037
IMU 23959.611399 -0.003242647217280265 0.00548783876704577 -0.0051810098845451675 0.25487 -9.86666 -0.07658
ODOM 23959.619164 0
IMU 23959.621712 0.0039109337878688935 0.006687054496091074 0.0019579103548872387 0.26818 -9.81355 0.04118
IMU 23959.631989 -0.00437658763230098 0.004634721828670942 0.00199142067652553 0.18211 -9.70196 0.01672
ODOM 23959.63899 0
IMU 23959.64268 0.0013828243663551072 0.006026796440061619 -0.005100550206028229 0.28197 -9.81023 -0.04841
IMU 23959.652832 0.00014521139376592822 0.005166872717604014 0.0028504717343571387 0.31972 -9.74636 -0.00108
ODOM 23959.660433 0
IMU 23959.663312 -0.0011266100321623397 0.003735004599267865 -0.002552893096892106 0.19521 -9.89874 0.03374
IMU 23959.673477 0.0009047786842338604 0.00415231282341971 0.003103544475896317 0.29566 -9.68015 0.01809
ODOM 23959.679246 0
IMU 23959.683652 -0.0026600563129645575 0.004331209071749128 -0.0013515829727444087 0.17693 -9.76798 -0.06641
IMU 23959.704433 0.0018182840147276925 0.004381998152982163 0.0010723302924253162 0.25155 -9.88456 0.02367
ODOM 23959.70453 0
IMU 23959.704604 -0.00016336281798666924 0.001642005760276265 0.007274532322312365 0.21693 -9.64005 0.01447
IMU 23959.714308 -0.0041989131144479575 0.0020552997271485224 -0.00441690473802205 0.25996 -9.81218 -0.09379
ODOM 23959.719338 0
IMU 23959.724496 0.0035896186725767375 0.0033267720872263914 0.004396658918698916 0.31747 -9.79849 0.00059
IMU 23959.734773 -0.0045511205575004135 0.001984962958293151 0.005527632273991241 0.11374 -9.80201 -0.01692
ODOM 23959.739422 0
IMU 23959.74493 0.0026481880740509963 0.0002485348854839925 -0.004042706146394465 0.27346 -9.71663 -0.03394
IMU 23959.755119 -0.0048954740189188954 0.0020793852708260443 0.004160341337978883 0.24685 -9.74617 -0.06621
ODOM 23959.758896 0
IMU 23959.765351 0.0015650367402633154 0.0013857914260834976 -0.0030044097743830386 0.23042 -9.896 -0.01985
IMU 23959.775959 -0.0014821336007935846 0.0012053243814272839 0.004516039439535328 0.30661 -9.65961 -0.00988
ODOM 23959.779741 0
IMU 23959.787135 -0.002809631029860472 8.517206749732327e-05 -0.0020226620701362286 0.20852 -9.8292 -0.11668
IMU 23959.796604 -0.005551543284743563 0.0007553785002631458 0.004931602334435177 0.24245 -9.81081 0.01242
ODOM 23959.798922 0
IMU 23959.806923 0.0033054790703520606 0.0004698426346368735 -0.004582536484036312 0.35033 -9.77414 -0.05545
IMU 23959.817073 -0.0029628709381855738 0.002313259390593284 -0.0016847663269501263 0.29996 -9.70216 -0.03501
ODOM 23959.819244 0
IMU 23959.827227 -0.0011606439525762293 0.0011747811195173831 -0.004228060112956263 0.27756 -9.97884 -0.00919
IMU 23959.837453 0.002629687583979856 0.003102846344195519 0.002097536695046785 0.32989 -9.68279 0.02406
ODOM 23959.839399 0
IMU 23959.86604 -0.0065835564714478104 0.0020806070013024403 -0.00420763976070793 0.28783 -9.8071 -0.0801
IMU 23959.866146 0.006471157267619375 0.0011575023599226394 -0.003491182102764258 0.40354 -9.92798 0.03638
ODOM 23959.866217 0
IMU 23959.868144 -0.0038371063605095335 0.003702192409330372 0.008258723487511967 0.28705 -9.69472 0.06289
IMU 23959.878342 -0.002466324765993187 0.0020505873381681376 -0.009223017899238836 0.35952 -9.84915 -0.04059
ODOM 23959.879455 0
IMU 23959.888736 0.0035850808165215527 0.003362725869817475 0.003590840403053134 0.36882 -9.73062 0.02582
IMU 23959.899705 -0.005427101309076368 0.003482106390653887 -0.0021008528206255747 0.23981 -9.86754 0.03022
ODOM 23959.899834 0
IMU 23959.909736 0.003970100449511502 0.0026904250419492594 -0.003474426941945112 0.44266 -9.7404 0.03188
ODOM 23959.919051 0
IMU 23959.919913 -0.00356727845815121 0.004417428336797648 0.004323704155965552 0.33693 -9.72025 -0.0446
IMU 23959.930199 0.004749564493452168 0.0027600636791038327 -0.007952418203786962 0.33204 -9.92114 0.06015
ODOM 23959.939527 0
IMU 23959.94037 -0.0006084217772452233 0.005634620957138493 0.007483273700850887 0.33967 -9.71585 0.11492
IMU 23959.950601 0.0004063126498642799 0.0028914869717790058 -0.0052934090883736025 0.21996 -9.7535 0.01487
ODOM 23959.958874 0
IMU 23959.960808 0.0012587314565383105 0.002641904888743817 -0.002505245608312661 0.34427 -9.75399 0.08558
IMU 23959.971046 -0.0022891738469157626 0.0042805945234412925 0.006389475858626041 0.22289 -9.81962 0.07453
ODOM 23959.979292 0
IMU 23959.98129 0.0018397515645272229 0.004165053726959268 -0.003406708166967732 0.32872 -9.65893 0.00557
IMU 23959.991564 -0.002731265746445926 0.0034875169113350694 -0.0004527384079673291 0.31483 -9.72093 -0.03628
ODOM 23959.999375 0
IMU 23960.002807 0.0018750072154175082 0.002217964413434394 -0.0011356857442727103 0.24333 -9.91106 0.05585
IMU 23960.028446 0.00015481070465189702 0.0028338911064631927 0.003040363556974122 0.25341 -9.66587 0.10592
ODOM 23960.02854 0
IMU 23960.028618 -0.0046558403126200736 0.003627666850270214 0.0006270968002415625 0.2849 -9.83341 -0.00362
IMU 23960.03371 0.004171336912266448 0.0025132741228718345 0.0035246924244025485 0.29801 -9.78881 0.05858
ODOM 23960.039379 0
IMU 23960.044052 -0.003677757799802451 0.0036803757936804426 0.005294630818849998 0.20226 -9.76475 0.08118
IMU 23960.054148 -0.00034208453339088857 0.0024338616419060924 -0.005057440573503969 0.32148 -9.8605 0.02201
ODOM 23960.059211 0
IMU 23960.06436 0.0018563321924211689 0.0030033625768318426 0.007933045049089826 0.27062 -9.63614 0.04919
IMU 23960.074561 -0.00490332800055287 0.0029419269871616416 -0.00644532639468986 0.1823 -9.88837 0.07795
ODOM 23960.07927 0
IMU 23960.084735 0.002821150202923634 0.0018093828355425215 0.0011648327427810155 0.46231 -9.83057 0.17282
IMU 23960.095067 -0.004996004983833768 0.003934844798621216 0.00923104641379801 0.31219 -9.73942 0.08558
ODOM 23960.099123 0
IMU 23960.105248 0.002915397982531328 0.0024617869099380018 -0.0052780501909560525 0.31776 -9.86167 0.21321
IMU 23960.11545 -0.0023987805239410066 0.004116708106679025 0.005591162258763835 0.41811 -9.80064 0.35923
ODOM 23960.120403 0
IMU 23960.125695 0.0005721189288037412 0.003197094123803213 -0.004901059072525277 0.37165 -9.9406 0.42476
IMU 23960.136035 0.0032358404331974872 -0.003811100954654818 -0.0034168310766292988 0.5163 -9.72837 0.61772
ODOM 23960.139324 0
IMU 23960.146822 0.005768487710766459 0.009413607853556615 -0.0031429889169913884 0.51767 -9.76172 0.70369
IMU 23960.156607 0.002397384260539411 0.011647629296109357 0.0002485348854839925 0.3293 -9.73091 0.53977
ODOM 23960.159235 0
IMU 23960.18221 0.005791526056892784 0.010142631882114648 -0.008481951098842044 0.33507 -9.81668 0.62809
IMU 23960.182294 0.004744328505696186 0.013763142882451684 -0.0024000022544174025 0.39845 -9.66783 0.76101
ODOM 23960.182337 0
IMU 23960.187319 0.0004783947479716457 0.013182122774462771 -0.0057852428715856035 0.36363 -9.92573 0.72413
IMU 23960.197473 0.009967051759364017 0.014646977615661614 4.6774823953448035e-05 0.40334 -9.76553 0.87084
ODOM 23960.198891 0
IMU 23960.211057 -0.0011686724671354032 0.017050121462732604 0.0013608332177799786 0.32304 -9.7804 0.87436
IMU 23960.217873 0.006828775231353014 0.018828437437589628 -6.283185307179586e-05 0.33429 -9.85844 0.76961
ODOM 23960.219743 0
IMU 23960.228075 0.0043521530227730604 0.01901239514074983 0.002812249023738463 0.31854 -9.65345 0.79739
IMU 23960.238198 0.0005920156822764765 0.019329346932912002 -0.004902804401777271 0.35111 -9.91106 0.86634
ODOM 23960.239163 0
IMU 23960.250929 0.008809723932366578 0.015135146207444427 0.004821821124484735 0.47933 -9.70176 0.93441
IMU 23960.25881 -0.0009196139828758122 0.02371919906752814 -0.002793574000742124 0.36549 -9.7804 0.88091
ODOM 23960.259612 0
IMU 23960.268974 0.009052499231318989 0.018361561862681147 -0.0026724481506537174 0.43043 -9.90754 0.97705
IMU 23960.279227 0.0010913543812720544 0.01961226480466028 0.005533915459298421 0.39776 -9.63242 1.0282
ODOM 23960.279349 0
IMU 23960.289497 0.0022849850567109764 0.02549803864116076 -0.009410640793828225 0.39317 -9.90021 0.95964
ODOM 23960.298957 0
IMU 23960.299597 0.008498182660885591 0.018644654267354625 0.0012260937995260167 0.42456 -9.83116 1.09246
IMU 23960.309832 0.00020420352248333657 0.020805720947174006 -0.0005656612105713622 0.39865 -9.75966 1.12601
ODOM 23960.319185 0
IMU 23960.320176 0.006571862765459448 0.026752232241643886 -0.006154903607158003 0.42857 -9.8204 1.0597
IMU 23960.344134 0.004868072349662584 0.024323781120418976 -0.002718175777055969 0.39199 -9.798 1.10449
ODOM 23960.344247 0
IMU 23960.344317 0.0037592646758705865 0.024394641488049942 -0.004782202150464463 0.48412 -9.77922 1.11173
IMU 23960.350735 0.008429940287132611 0.029560990606878355 -0.0006881833240613641 0.47953 -9.6957 1.08385
ODOM 23960.360065 0
IMU 23960.361025 0.002749591703591867 0.032459458895665344 -0.007229851893461311 0.3919 -9.90559 1.08757
IMU 23960.372212 0.009373639813685946 0.03101938772984482 0.004512548781031339 0.42945 -9.7491 1.14038
ODOM 23960.379927 0
IMU 23960.381542 0.001207767842380076 0.036850183694907473 -0.0040587631755128134 0.36569 -9.68651 1.04845
IMU 23960.39176 0.0085564766579022 0.03706800078555637 -0.006448817053193848 0.44138 -9.96388 1.07613
ODOM 23960.398735 0
IMU 23960.402088 0.00713473144922762 0.03479052064462897 0.005332155397767877 0.48657 -9.65061 1.15378
IMU 23960.412415 -0.000266860842629933 0.04508639243506872 -0.005066690818539539 0.40657 -9.7582 1.03045
ODOM 23960.419239 0
IMU 23960.422569 0.010840065451211581 0.04327090094714421 -0.0031504938327749643 0.48256 -9.83125 1.0507
IMU 23960.432755 0.0031698669874721014 0.04634721828670942 -0.0006822492046045834 0.45557 -9.71379 1.05921
ODOM 23960.439347 0
IMU 23960.442934 0.0023095941991640966 0.04725967641965206 -0.0011103784701187924 0.50427 -9.76318 0.96179
IMU 23960.453225 0.005769011309542057 0.04876380116902077 -0.002951526298047611 0.47405 -9.73179 0.96845
ODOM 23960.458995 0
IMU 23960.46354 -0.0021488493750554186 0.0493072966980918 -0.00455234228797681 0.51924 -9.83438 1.00718
IMU 23960.473676 0.006498733469800886 0.05067598389750576 0.002152165500634208 0.50427 -9.72132 0.96492
ODOM 23960.479685 0
IMU 23960.484125 -0.0015542156989009506 0.05317721524853883 -0.01115143218976737 0.40168 -9.72856 0.90859
IMU 23960.509842 0.0008663814406899851 0.05222548720742633 -0.002731091213520727 0.60882 -9.91664 0.98986
ODOM 23960.509932 0.375
IMU 23960.510004 0.0028398252259199735 0.057074186402391765 0.003503923006303816 0.49283 -9.58372 0.93881
IMU 23960.514956 -0.008015773655634358 0.05555993874336149 -0.010028487349034219 0.42681 -9.74754 0.86252
ODOM 23960.519289 0.375
IMU 23960.526959 -0.004466297555853489 0.05998295213376552 -0.0006551966011986713 0.49302 -9.61355 0.94654
IMU 23960.536539 -0.0036240016588410255 0.05992134201117012 -0.006969623301988957 0.48931 -9.71585 0.85666
ODOM 23960.539359 0.375
IMU 23960.546858 0.0009473647179825221 0.06028890835164012 -0.006253165644045284 0.53674 -9.85668 0.91808
IMU 23960.55673 -0.0050991539426266325 0.062149603867191275 0.005449441523501896 0.53958 -9.69942 0.97099
ODOM 23960.559126 0.93755
IMU 23960.566986 -0.002661452576366153 0.06406161206275107 -0.007632499351896402 0.40539 -9.72905 0.85891
IMU 23960.577178 -0.004184252348731206 0.05986985479823628 -0.006698224603303838 0.56833 -9.9006 0.9617
ODOM 23960.579219 0.93755
IMU 23960.587337 -0.00015917402778188285 0.06550674468340237 0.0044006731759785025 0.60892 -9.72132 1.0015
IMU 23960.597571 -0.006931924190145879 0.06887453200805063 -0.007045196058600311 0.46799 -9.70098 0.88893
ODOM 23960.59919 0.93755
IMU 23960.607867 -0.0017032668170212661 0.06680212805423257 0.000673173492494213 0.59474 -9.88299 0.95759
IMU 23960.618423 0.001466949236301234 0.07177212763221162 0.0017996089917313531 0.47542 -9.75927 0.98028
ODOM 23960.619259 1.25
IMU 23960.628574 -0.007742804160622445 0.07253797810798672 -0.001034805713507438 0.49332 -9.73365 0.91348
IMU 23960.638793 0.0028515189319083356 0.07372724546029567 -0.003273365012115365 0.55953 -9.86138 0.95094
ODOM 23960.639297 1.25
IMU 23960.661911 -0.0033262484884507932 0.07590332197168219 0.0022561871240530697 0.52217 -9.78949 1.01735
IMU 23960.662025 -0.0004996877648459766 0.07915783742787602 0.0029824186258079104 0.52021 -9.77825 0.96238
ODOM 23960.662065 1.25
IMU 23960.669384 0.0008482300164692441 0.08004533735251514 -0.002620611871869486 0.46055 -9.84808 0.90546
ODOM 23960.679556 1.45315
IMU 23960.67981 -0.0004054399852382828 0.08072584122786773 0.004054399852382828 0.55464 -9.85854 0.98204
IMU 23960.690186 0.0015872024217636431 0.0840278296397158 0.004051956391430036 0.48892 -9.72543 0.89793
ODOM 23960.699262 1.45315
IMU 23960.700054 -0.0015495033099205658 0.08354908582589377 -0.0026385887631650276 0.48256 -9.7979 0.87387
IMU 23960.710246 0.0031388001267866022 0.08650148478856737 0.004890063498237712 0.56266 -9.86842 0.97783
ODOM 23960.719493 1.5469
IMU 23960.72054 -0.0003663446099936098 0.08863619699668163 0.007672467391767072 0.45615 -9.77355 0.91152
IMU 23960.730922 0.0006150540284028018 0.0875685790932367 0.004092448030076304 0.51014 -9.73433 0.88717
ODOM 23960.739863 1.64065
IMU 23960.741058 0.0010136872295583067 0.08886745312257088 -0.0017390460666871501 0.51855 -9.82793 0.92825
IMU 23960.751171 -0.0015807447035312643 0.08862781941627206 0.010443701178083669 0.57694 -9.7981 0.94517
ODOM 23960.759041 1.7188
IMU 23960.761347 0.0040322341708825 0.09304507322014449 0.0038601447066358586 0.4407 -9.72866 0.81176
IMU 23960.771666 -0.0032599259768750087 0.09131353206924094 -0.0024293237858509075 0.53733 -9.89913 0.86243
ODOM 23960.779343 1.7188
IMU 23960.781967 0.004080230725312344 0.0929534434344148 0.015763639271087586 0.61088 -9.8115 0.89196
IMU 23960.792134 -7.923794804054255e-05 0.09468515911824357 0.00541401133968641 0.38671 -9.58812 0.77372
ODOM 23960.798746 1.875
IMU 23960.802313 -0.0038933059624237506 0.09336446847325947 -0.0025446900494077327 0.58115 -9.83928 0.87152
POSE 23960.805138 0 0 0 0 0 0 23960.845047
IMU 23960.822152 0.005500579670585329 0.09647586693078976 0.013190151289021946 0.58339 -9.8159 0.93196
ODOM 23960.822268 1.875
IMU 23960.822975 -0.00565713570448922 0.09826622567748554 0.006513568768442837 0.40598 -9.61736 0.83758
IMU 23960.833245 -0.001688256985454115 0.09893259238589698 0.0003822271061867582 0.57899 -9.82206 0.83749
ODOM 23960.83977 2
IMU 23960.843858 -0.0003972369377539094 0.09989374520497026 0.006683912903437485 0.59239 -9.87957 0.83504
IMU 23960.853938 -0.0011306242894419268 0.10496951173562016 0.010731505971737535 0.48041 -9.62362 0.79651
ODOM 23960.859871 2
IMU 23960.86462 -0.003738495257771854 0.10305453648033198 -0.0031709141850232983 0.46075 -9.73531 0.75269
IMU 23960.874837 3.543018381548489e-05 0.10674538424952439 0.007524114405347554 0.6054 -9.87439 0.88531
ODOM 23960.879367 2.125
IMU 23960.88495 0.0016776104770169495 0.10804914520076415 0.01199180822460264 0.4587 -9.57697 0.88081
IMU 23960.89525 -0.008109672369391653 0.10940683682589054 -0.003410896957172518 0.50457 -9.70235 0.80952
ODOM 23960.899117 2.1875
IMU 23960.905388 0.0010515608743265836 0.11075283474502857 0.008829969751689712 0.69157 -9.85522 0.87827
IMU 23960.91561 0.0007972664023110097 0.1159462364672629 0.009942268083985698 0.48364 -9.56973 0.84316
ODOM 23960.919144 2.25
IMU 23960.925921 -0.010318735603640874 0.11485034422993566 -0.0005265658353266892 0.56442 -9.70245 0.7744
IMU 23960.936143 -0.0008407251006856685 0.11970986446626346 0.0076829393672790385 0.58261 -9.71379 0.82634
ODOM 23960.93953 2.3125
IMU 23960.946512 -0.004800004508834805 0.12041637374747077 0.0013320352851220723 0.55552 -9.68005 0.73792
IMU 23960.956694 -0.00198827908387194 0.12107349021084665 -0.0033513812296795116 0.59601 -9.87243 0.70418
ODOM 23960.958927 2.4219
POSE 23960.966496 0.0322126 0.00019314 0.0838723 0.000364432 0.0113999 0.00118796 23961.269059
IMU 23960.988673 -0.00046181412007769964 0.12251233964619077 0.0007192501847468632 0.68491 -9.71741 0.83543
IMU 23960.988807 -0.003709522792188748 0.12521864718433318 0.0017013469548440724 0.4898 -9.66098 0.72472
ODOM 23960.988847 2.4219
IMU 23960.988948 -0.004031361506256502 0.12423585228253517 -0.010542486813746548 0.62115 -9.80592 0.68579
IMU 23960.997734 0.000786445360948645 0.12815045126183325 0.004388281338289343 0.67934 -9.81619 0.76355
ODOM 23960.999066 2.51565
IMU 23961.007993 -0.002482905393887133 0.13070212262824896 0.0010304423903774523 0.46779 -9.65863 0.65117
IMU 23961.018322 -0.0050914744939178575 0.13258271489727286 -0.006190333790973488 0.61694 -9.66929 0.6143
ODOM 23961.019612 2.5625
IMU 23961.02846 -0.0009262462340333907 0.13252040664297665 -0.00047193702973926673 0.60873 -9.82842 0.58535
IMU 23961.03876 -0.0005583308277129859 0.13444550480792639 -0.0023017402175301216 0.64843 -9.6647 0.71533
ODOM 23961.039441 2.6094
IMU 23961.049057 -0.005430242901729958 0.136904324658136 -0.0014892894507267614 0.53498 -9.75771 0.67328
ODOM 23961.05918 2.64065
IMU 23961.059373 -0.00325957691102461 0.13972547486105963 -0.01035434032038156 0.66379 -9.85854 0.68883
IMU 23961.069412 0.0008920377806943019 0.14076743642450024 0.008407251006856686 0.63464 -9.70881 0.7212
ODOM 23961.08188 2.7188
IMU 23961.082057 -0.007841066197509725 0.14379366281453324 -0.007430913823291058 0.50163 -9.60337 0.56168
IMU 23961.091484 -0.008881456964623545 0.14393416181931876 -0.009196139828758124 0.82057 -9.85815 0.55875
ODOM 23961.099418 2.7188
IMU 23961.102219 0.0029087657313737495 0.14705254159385703 0.003036698365544934 0.78839 -9.86324 0.64227
IMU 23961.111995 -0.0021685715956029543 0.14783724162555367 -0.00898460592341641 0.65773 -9.60778 0.6635
ODOM 23961.119216 2.7969
IMU 23961.122197 -0.011930547167857639 0.15013706198090662 -0.004036597494012486 0.74741 -9.74137 0.64785
POSE 23961.125932 0.000426649 -0.0033422 0.180325 -0.0022829 0.0427728 -0.000302921 23961.285266
IMU 23961.143143 0.0010913543812720544 0.1504128240027217 -0.012095131716320703 0.62623 -9.96593 0.59895
ODOM 23961.143277 2.8594
IMU 23961.14337 -0.002781182163052964 0.15356820475740227 -0.009834406736212449 0.76247 -9.70264 0.69694
IMU 23961.153093 -0.008310385233371 0.1567940968138634 -0.004107981460419054 0.69186 -9.7137 0.52051
ODOM 23961.1592 2.89065
IMU 23961.163323 -0.0012606513187155043 0.1581734305217145 -0.020315807026139197 0.6943 -9.82539 0.50486
IMU 23961.173666 -0.003572863511757592 0.1600746176759119 -0.004996179516758968 0.74203 -9.78333 0.62868
ODOM 23961.180478 2.95315
IMU 23961.183959 -0.006095736945515396 0.16321970098800573 -0.008379151205899577 0.61029 -9.70832 0.57
IMU 23961.194287 -0.0053288392721890865 0.1650723679889977 -0.009275726842649065 0.74272 -9.62743 0.5429
ODOM 23961.200658 2.95315
IMU 23961.204262 -0.008254534697307182 0.1664801505636563 -0.0011583750245486365 0.64266 -9.8651 0.52266
IMU 23961.216042 -0.008876395509792762 0.16952714637178803 -0.0020256291298646188 0.72003 -9.73981 0.52706
ODOM 23961.219563 3
IMU 23961.226297 -0.008082619765985741 0.17393392820014852 -0.0025539402944433024 0.70438 -9.71399 0.5343
IMU 23961.236485 -0.007154104603924756 0.17353040807708742 -0.00548783876704577 0.72208 -9.66499 0.58574
ODOM 23961.23915 3.0625
IMU 23961.246765 -0.013698914765978292 0.17482788584302 -0.00028745572780346603 0.65323 -9.74656 0.50672
IMU 23961.256912 -0.006936112980350665 0.17510888385259107 -0.006659827359759962 0.71005 -9.72514 0.54388
ODOM 23961.258945 3.07815
IMU 23961.267065 -0.007684859229456232 0.17634283163375108 -0.002851344398983136 0.68188 -9.77013 0.58975
IMU 23961.277307 -0.011586542772289557 0.17862921295386364 0.0007019714251521194 0.68971 -9.70127 0.57674
ODOM 23961.279172 3.14065
POSE 23961.285233 0.00501969 0.00486538 0.293886 -0.0031752 0.0725735 0.000762286 23961.347841
IMU 23961.305155 -0.00728221177102114 0.17979160223569185 -0.0015823154998580592 0.64667 -9.68103 0.53244
IMU 23961.305241 -0.013210920707120679 0.1792261155580457 -0.0042912410318784585 0.69734 -9.80915 0.57958
ODOM 23961.305279 3.1875
IMU 23961.308209 -0.007871783992344825 0.18370113976015917 0.004838925351154278 0.61958 -9.78812 0.61772
IMU 23961.318894 -0.009764768099057875 0.18096969948078806 -0.00733771324123456 0.56335 -9.64885 0.49234
ODOM 23961.321146 3.21875
IMU 23961.33013 -0.01373975547047496 0.18489669029777528 0.005491853024325357 0.65792 -9.74157 0.51982
IMU 23961.339767 -0.006373069763657294 0.18665947284228956 0.0020640263734084943 0.52061 -9.68406 0.52393
ODOM 23961.340607 3.25
IMU 23961.350056 -0.015985994217791663 0.18435563822965703 -0.007304377452521468 0.57586 -9.78098 0.53645
ODOM 23961.35891 3.26565
IMU 23961.36011 -0.011248123430327855 0.18643607069803428 0.00881845057862655 0.67836 -9.85629 0.52863
IMU 23961.370354 -0.0022992967565773296 0.1880278109758531 -0.004391597463868132 0.45694 -9.74089 0.5255
ODOM 23961.379587 3.31255
IMU 23961.380598 -0.01847029587508039 0.18776950224655795 0.004549898827024017 0.58212 -9.70675 0.59689
IMU 23961.390782 -0.010056412617066126 0.18996163578706282 0.003085043985825177 0.49156 -9.91018 0.4273
ODOM 23961.399056 3.375
IMU 23961.401149 -0.00717784108175188 0.18941534773118862 -0.002531600080017775 0.61577 -9.70881 0.47806
IMU 23961.412834 -0.012852430078761043 0.19145563762676998 0.010037912126994989 0.55875 -9.59037 0.52833
ODOM 23961.419425 3.40625
IMU 23961.421722 -0.015490669776075671 0.1893245906100849 -0.008896990394966294 0.45547 -9.8336 0.41547
IMU 23961.431887 -0.011789350031371297 0.1915376681016137 0.0023591615499207355 0.6454 -9.96368 0.46271
ODOM 23961.43913 3.45315
IMU 23961.442401 -0.0059388318457611056 0.1927716158827737 0.007638433471353183 0.43914 -9.85258 0.4453
POSE 23961.45 0.0229528 0.00510859 0.406556 -0.0043594 0.103449 0.00130619 23961.501693
IMU 23961.470391 -0.012728686234794645 0.1910227959722754 -0.00377357637573694 0.47288 -9.62039 0.46897
ODOM 23961.470473 3.50005
IMU 23961.470538 -0.01696268046720769 0.19273321863922982 0.0012023573216988937 0.57616 -9.89581 0.40891
IMU 23961.472836 -0.010847570366995156 0.1920368322676841 0.001390329282138683 0.60002 -10.0725 0.41351
ODOM 23961.479331 3.5313
IMU 23961.483058 -0.006964561847158173 0.19436335616059253 0.010384185450590663 0.57743 -9.70333 0.43248
IMU 23961.493293 -0.014589032684495401 0.19450821848850808 -0.0026930430358272505 0.4987 -9.65736 0.29869
ODOM 23961.499004 3.5625
IMU 23961.503453 -0.013800143862593964 0.19360588326522699 -0.004502251338444573 0.6765 -9.90911 0.29605
IMU 23961.513681 -0.0051019464694298244 0.196674172090233 0.005444380068671112 0.51787 -9.94774 0.32744
ODOM 23961.5191 3.5938
IMU 23961.52401 -0.008349131542765275 0.19490091757020678 -0.006352998477259359 0.48559 -9.77414 0.36304
IMU 23961.53426 -0.014164917676260779 0.19639142875140994 -0.000992917811459574 0.56951 -9.91273 0.35688
ODOM 23961.539643 3.64065
IMU 23961.544399 -0.004503996667696567 0.1955466893934447 -0.0032702234194617753 0.5208 -9.99361 0.33282
IMU 23961.55457 -0.005516811232628876 0.19546116826009696 0.0013109168011729408 0.54633 -9.76289 0.3248
ODOM 23961.559155 3.6563
IMU 23961.564777 -0.01145616667716558 0.19790462921288904 0.0006717772290926175 0.54623 -9.71458 0.28128
IMU 23961.575531 -0.0064381705447566825 0.19676143855283273 -0.005029864371322458 0.52598 -9.84896 0.26671
ODOM 23961.580095 3.6875
IMU 23961.58585 -0.005471083606226625 0.19896928005660555 0.004345520771615482 0.55044 -9.65345 0.39317
IMU 23961.595924 -0.0076520470395187385 0.19788543059111707 -0.0012538445346327264 0.54975 -9.79751 0.29008
ODOM 23961.599598 3.7188
POSE 23961.605257 0.0260895 0.0103648 0.573864 -0.0055401 0.133495 0.00253713 23961.689691
IMU 23961.622614 -0.0076520470395187385 0.19788543059111707 -0.0012538445346327264 0.54975 -9.79751 0.29008
IMU 23961.622707 -0.007231248156862906 0.1987528592293583 0.002215346419556402 0.46554 -9.76465 0.3516
ODOM 23961.622746 3.75
IMU 23961.629847 -0.010481400289926746 0.19798491435848076 0.004799306377134008 0.53772 -9.7315 0.33566
ODOM 23961.639029 3.76565
IMU 23961.640054 -0.006895795874629596 0.19616279061939867 0.0014489723450056924 0.43542 -9.86294 0.32158
IMU 23961.650323 -0.005299168674905184 0.19806869016257647 0.006181258078863117 0.47278 -9.58939 0.41821
ODOM 23961.658844 3.7969
IMU 23961.66057 -0.011512017213229399 0.19561999322202844 0.0020999801559995774 0.38583 -9.62127 0.28666
IMU 23961.670744 -0.009845925909275612 0.19776500287272947 0.0042655846918741415 0.52589 -9.66616 0.26397
ODOM 23961.679072 3.82815
IMU 23961.68097 -0.006751980744265263 0.19680681711338457 -0.000518013721991917 0.43552 -9.62157 0.3028
IMU 23961.691267 -0.015221016406642548 0.19531281527367744 0.0013795082407763181 0.41821 -9.78509 0.39933
ODOM 23961.699051 3.8594
IMU 23961.70168 -0.006582509273896614 0.19814199399116025 0.0023169245820224725 0.42339 -9.86558 0.41948
IMU 23961.711832 -0.008878664437820354 0.19308053916037668 -0.003286978580280921 0.42447 -9.7712 0.39874
ODOM 23961.718961 3.8594
IMU 23961.722045 -0.008847597577134854 0.1960877414615629 0.007654490500471531 0.3693 -9.67663 0.41136
IMU 23961.732408 -0.009817826108318503 0.19471591266949537 -0.0019456930501232784 0.29136 -9.68612 0.32823
ODOM 23961.739055 3.89065
IMU 23961.742488 -0.010514910611565037 0.19374201894688253 0.00619277725192628 0.38202 -9.74558 0.31991
IMU 23961.752656 -0.00446926461558188 0.1934470583032955 0.006472204465170572 0.31972 -9.63203 0.35101
ODOM 23961.758956 3.9063
IMU 23961.762951 -0.015142651123228002 0.19134393655464235 6.283185307179587e-06 0.33273 -9.69619 0.3964
POSE 23961.765172 0.0496226 0.0150289 0.751707 -0.00689532 0.162139 0.00497429 23961.837688
IMU 23961.780821 -0.01138548084245981 0.1928292117480895 0.014002602055825306 0.40324 -9.82793 0.3963
ODOM 23961.78094 3.9688
IMU 23961.783374 -0.009920800534186168 0.1906143889273087 0.006521771815927211 0.28969 -9.80142 0.31307
IMU 23961.793502 -0.013504310554380925 0.18954450209583618 0.007763748111646376 0.47767 -9.81561 0.40647
ODOM 23961.798989 3.9844
IMU 23961.803977 -0.00922755575529402 0.18808715217042093 0.013254728471345737 0.42388 -9.83399 0.31982
IMU 23961.814168 -0.008792619705697034 0.1882477224616044 0.007314849428033434 0.32559 -9.75976 0.30544
ODOM 23961.819766 3.9844
IMU 23961.824444 -0.010760129371470242 0.18574317498499254 0.009446594576419309 0.45361 -9.71898 0.38877
IMU 23961.834629 -0.009113236689288392 0.18801210301258514 0.014584843894290616 0.3697 -9.75428 0.35571
ODOM 23961.839164 4.01565
IMU 23961.844831 -0.00925233943067234 0.18661583961098968 0.012086056004210333 0.39728 -9.55936 0.32676
IMU 23961.855155 -0.015250687003926452 0.18552500882849324 0.0049644145243726715 0.38231 -9.77551 0.25712
ODOM 23961.859316 4.0469
IMU 23961.865321 -0.01104339630906892 0.1857222310339686 0.014489723450056925 0.53762 -9.86167 0.30857
IMU 23961.875511 -0.007090051020376564 0.18527542674545808 0.010639527120157434 0.41997 -9.68543 0.23991
ODOM 23961.879096 4.06255
IMU 23961.885914 -0.01572559109339411 0.18487051035899538 0.005631479364484904 0.38906 -9.73521 0.23502
IMU 23961.896064 -0.008750382737798771 0.18490192628553126 0.007441909397578622 0.47777 -9.75174 0.42339
ODOM 23961.898876 4.1094
IMU 23961.90626 -0.01552208570261157 0.18488272766375932 0.015007213573273243 0.42486 -9.67321 0.31942
IMU 23961.916387 -0.010873401239924673 0.1838756726853586 0.00941221159015502 0.35992 -9.71888 0.19443
ODOM 23961.919401 4.12505
IMU 23961.926582 -0.011841709908931127 0.18407289489083395 0.008521919138712713 0.44041 -9.64592 0.2717
POSE 23961.927106 0.0584162 0.0172925 0.939556 -0.00885785 0.190157 0.00568986 23961.985869
IMU 23961.950182 -0.014375229851126096 0.18525971878219008 0.014462496313725813 0.37918 -9.63927 0.30456
ODOM 23961.950268 4.15625
IMU 23961.950334 -0.014698639361520644 0.18424219182827742 0.001791056878396581 0.33498 -9.81864 0.28382
IMU 23961.957339 -0.011838393783352337 0.18469423210454394 0.014926055763055505 0.45068 -9.89766 0.31854
ODOM 23961.959234 4.18755
IMU 23961.967575 -0.008361348847529234 0.1832054662525928 0.01017247701232375 0.31923 -9.74617 0.30906
IMU 23961.977855 -0.017203710436908107 0.18412001878063783 0.009371370885658353 0.38104 -9.73013 0.29419
ODOM 23961.979503 4.20315
IMU 23961.988006 -0.011143403675208196 0.18244275736947127 0.014050075011479552 0.3961 -9.79839 0.22485
IMU 23961.998215 -0.006909583975720351 0.18198373577619675 0.007730761388783683 0.31972 -9.6733 0.28881
ODOM 23961.99881 4.2344
IMU 23962.008714 -0.01594620071084619 0.1806119069841292 0.009094038067516455 0.41156 -9.62342 0.35845
IMU 23962.019344 -0.011487233537851079 0.18011623347656283 0.009804212540152946 0.35346 -9.83908 0.25693
ODOM 23962.019515 4.26565
IMU 23962.029251 -0.008013853793457164 0.17907950790087818 0.00872245746976686 0.34593 -9.75624 0.2893
ODOM 23962.039863 4.26565
IMU 23962.039996 -0.01701469127891712 0.17857161708854785 0.01026166333710066 0.2848 -9.79566 0.25575
IMU 23962.050195 -0.010785785711474557 0.1776291392924709 0.010136523229732667 0.35786 -9.84368 0.23903
ODOM 23962.059287 4.28125
IMU 23962.060494 -0.00684535585924696 0.1768018532270256 0.010955780780618804 0.24734 -9.67184 0.22964
IMU 23962.070711 -0.019224103579016744 0.1736923746316725 0.0017889624832941877 0.29272 -9.86832 0.23952
ODOM 23962.079364 4.32815
IMU 23962.080948 -0.006781302275698768 0.17548412964176988 0.016989209471838004 0.41508 -9.97287 0.27473
POSE 23962.085906 0.091087 0.0199687 1.12625 -0.00985848 0.214601 0.00955333 23962.141819
IMU 23962.100031 -0.0063975043731852145 0.17367823746473132 0.008979893534436026 0.22338 -9.57824 0.14905
ODOM 23962.100172 4.32815
IMU 23962.101325 -0.019922584345664875 0.16945628600415705 0.0023586379511451373 0.32109 -9.78685 0.19786
IMU 23962.112645 -0.006149144020626422 0.1706335105846272 0.015847589608108514 0.36637 -9.93727 0.22094
ODOM 23962.119073 4.32815
IMU 23962.12183 -0.010289239539282171 0.16897021180747662 0.0036184166052346443 0.29478 -9.69981 0.24695
IMU 23962.132067 -0.021015160457413324 0.16933899987842305 0.009299637853401387 0.41586 -9.88632 0.22055
ODOM 23962.139416 4.39065
IMU 23962.142381 -0.0052220251219670345 0.16779700148428606 0.011100468575609135 0.37253 -10.0279 0.16529
IMU 23962.152561 -0.009900729247788235 0.16832252012206156 0.014224782469604184 0.29184 -9.68015 0.20451
ODOM 23962.158977 4.4063
IMU 23962.162741 -0.020444786857861576 0.16649201880256986 0.0069252919389882995 0.27805 -9.87536 0.14387
IMU 23962.173073 -0.00954433301453099 0.16619967615286083 0.01261646156389141 0.36402 -10.1124 0.1293
ODOM 23962.183065 4.4219
IMU 23962.183444 -0.002510656128993843 0.16672100600043155 0.01712918487784795 0.22866 -9.5977 0.20519
IMU 23962.193639 -0.024166003356038683 0.16556559803561127 -0.0004995132319207771 0.1378 -9.6823 0.17096
ODOM 23962.199028 4.45315
IMU 23962.204032 -0.012975999389802241 0.16380944774225462 0.007217634588697351 0.4183 -9.99732 0.15101
IMU 23962.214125 -0.005554335811546755 0.16457355288877773 0.013374108992182148 0.22133 -9.87585 0.07922
ODOM 23962.219201 4.4844
IMU 23962.224355 -0.021915401285592 0.16191175124656115 0.005156400742092047 0.34632 -9.79028 0.1961
IMU 23962.234584 -0.013673782024749575 0.16406007702284098 0.016832653437934112 0.41126 -10.0029 0.15932
ODOM 23962.23888 4.4844
IMU 23962.244781 -0.005452757649080684 0.1623393569132998 0.01205882886787922 0.23864 -9.84847 0.08059
POSE 23962.245257 0.140123 0.0209643 1.31483 -0.0109703 0.235283 0.0133207 23962.34392
IMU 23962.257647 -0.020353331605057076 0.15991003312744886 0.00928602428523583 0.294 -9.75536 0.16137
ODOM 23962.259539 4.50005
IMU 23962.265468 -0.013797700401641171 0.158823216602232 0.013352117843607021 0.30133 -10.0073 0.14788
IMU 23962.275966 -0.006957580530150195 0.15705607073458772 0.013934185149147129 0.31649 -9.72074 0.0755
ODOM 23962.279052 4.53125
IMU 23962.286073 -0.01476757986697442 0.15538648877213 0.004080754324087942 0.30309 -9.9804 0.12098
IMU 23962.296317 -0.008258025355811171 0.15509571691874768 0.02080100855819362 0.43248 -9.83742 0.19013
ODOM 23962.299383 4.53125
IMU 23962.306724 -0.012963083953337484 0.1515010367913402 0.011778528990008932 0.2183 -9.58675 0.09829
IMU 23962.316932 -0.01691957083468343 0.15042678663673767 0.008923693932521808 0.31189 -9.79918 0.14406
ODOM 23962.319018 4.53125
IMU 23962.327284 -0.006650228048873994 0.1492235566504128 0.022219437641289412 0.26016 -9.83233 0.18338
IMU 23962.337417 -0.01447837880991896 0.14843082810415695 0.009142732753647095 0.13066 -9.59643 0.15913
ODOM 23962.339251 4.53125
IMU 23962.347559 -0.017308953790803366 0.14719914925102456 0.012556945836398404 0.25351 -9.87008 0.10083
IMU 23962.358064 -0.003925769086510845 0.14623625110269928 0.019437731879460848 0.2626 -9.89561 0.12411
ODOM 23962.359196 4.5469
IMU 23962.368505 -0.007939677300247404 0.1455489404432639 0.021020570978094507 0.11296 -9.45657 0.23815
IMU 23962.378585 -0.020495226873244215 0.14367009350349202 0.010059030610944118 0.17262 -9.62147 0.15071
ODOM 23962.379399 4.57815
IMU 23962.388733 -0.008378976672974377 0.14359818593830986 0.02149058814565658 0.35727 -9.97102 0.12705
ODOM 23962.398685 4.625
IMU 23962.399033 -0.005639507879044078 0.1438989061684285 0.028512745858130562 0.15238 -9.64905 0.15247
POSE 23962.41054 0.180517 0.0223342 1.50738 -0.011777 0.253843 0.0169906 23962.491881
IMU 23962.428831 -0.017645976869363467 0.1402881690119026 0.011240967580394678 0.15277 -9.62088 0.18837
ODOM 23962.428914 4.625
IMU 23962.428978 -0.009410466260903026 0.14104983069747293 0.02686131531989353 0.35913 -9.84368 0.1871
